StationCode,StreamName,Location,Latitude_DDeg,Longitude_DDeg,TYPE
AD-04,CACHE RIVER-POST CREEK CUT OFF,2 MI S WEST VIENNA,37.39429,-88.97581,STREAM
AD-05,CACHE RIVER-POST CREEK CUT OFF,1 MI N MT PLEASANT,37.46662,-89.07682,STREAM
AD-06,CACHE RIVER-POST CREEK CUT OFF,0.8 MI SW SARATOGA,37.50426,-89.1709,STREAM
AD-08,CACHE RIVER-POST CREEK CUT OFF,HERON POND N FORMAN,37.35695,-88.91528,STREAM
AD-09,CACHE RIVER-POST CREEK CUT OFF,4 MI W HILLERMAN,37.24005,-88.95924,STREAM
AD-10,CACHE RIVER-POST CREEK CUT OFF,LIMEKILN RD 2.5 MI N ANNA,37.50111,-89.22778,STREAM
AD-11,CACHE RIVER-POST CREEK CUT OFF,LIMEKILN RD 0.2 MI E RT 51 N ANNA,37.48809,-89.23047,STREAM
AD-20,CACHE RIVER-POST CREEK CUT OFF,"NW FORMAN, 0.63 MI UPS DUTCHMAN CK",37.3608333,-88.9197222,STREAM
ADC-01,MAIN DITCH,RT 45 BR 3.5 MI NW MERMET,37.32056,-88.87604,STREAM
ADCD-01,NEW COLUMBIA DITCH,3 MI E MERMET,37.27278,-88.79333,STREAM
ADCDA-01,BEAR CREEK DITCH,STATON RIDGE RD (750E) BR 3 MI SE OF MERMET,37.26319,-88.79375,STREAM
ADD-01,DUTCHMAN CREEK,2 MI SSW VIENNA,37.38564,-88.90314,STREAM
ADD-04,DUTCHMAN CREEK,OLD RT 146 BR 1.2 MI E WEST VIENNA,37.4252778,-88.9458333,STREAM
ADD-05,DUTCHMAN CREEK,WAGONTOWN LANE 3.7 MI SE OF GOREVILLE,37.521,-88.94,STREAM
ADD-06,DUTCHMAN CREEK,BUNCOMBE ROAD 2.4 MI NW OF VIENNA,37.44878,-88.92514,STREAM
ADDA-01,CAVE CREEK,INDIAN POINT ROAD 4 MI SE OF VIENNA,37.36633,-88.86119,STREAM
ADDB-01,LITTLE CACHE CREEK,RT 146 BR VIENNA,37.41538,-88.89108,STREAM
ADDB-03,LITTLE CACHE CREEK,SHELBY ROAD 2.3 MI NE OF VIENNA,37.45444,-88.86581,STREAM
ADL-01,LICK CREEK,0.5 MI N ELVIRA,37.50095,-89.025,STREAM
ADLA-01,BUCK BRANCH,HAPPY HOLLOW ROAD 2.7 MI SW OF GOREVILLE,37.52192,-89.00706,STREAM
ADP-01,BRADSHAW CREEK,1.4 MI N MT PLEASANT,37.47258,-89.07987,STREAM
ADX-01,CACHE CREEK,1 MI SE COBDEN,37.51833,-89.23389,STREAM
ADY-01,OLD CACHE RIVER,1 MI NW KARNAK,37.30675,-88.98407,STREAM
AE-03,MASSAC CREEK,MASSAC CREEK RD 0.9 MI NE OF METROPOLIS,37.169,-88.715,STREAM
AEA-01,WEAVER CREEK,MASSAC CREEK RD 0.8 MI NE OF METROPOLIS,37.169,-88.718,STREAM
AF-02,SEVEN MILE CREEK,WALDO CHURCH RD 3.2 MI N OF BROOKPORT,37.175,-88.626,STREAM
AH-01,DOG CREEK,3 MI SE OF BAY CITY,37.2044444,-88.4916667,STREAM
AI-02,BARREN CREEK,2.6 MI SW BAY CITY FR1410,37.23111111,-88.53722222,STREAM
AJ-08,BAY CREEK,WATKINS FORD T11S R5E,37.53603,-88.63124,STREAM
AJ-09,BAY CREEK,0.5 MI NW ROBBS,37.46263,-88.70742,STREAM
AJB-01,FLAT LICK BRANCH,TRAIL OF TEARS RD 1.1 MI N OF BROWNFIELD,37.362,-88.609,STREAM
AJD-01,SUGAR CREEK,STATE RT 145 BR 2.2 MI N OF DIXON SPRINGS,37.417,-88.671,STREAM
AJE-01,JOHNSON CREEK,REEVESVILLE RD 1.8 MI W OF GRANTSBURG,37.387,-88.779,STREAM
AJF-01,CEDAR CREEK,2 MI N SIMPSON GUM SPRINGS ROAD,37.49527778,-88.75777778,STREAM
AJF-02,CEDAR CREEK,1.4 MI W OF FLATWOODS AT SHAWNEE CORR CENTER RD,37.434444,-88.76444,STREAM
AJFA-21,MAX CREEK,2 MI SW SIMPSON,37.44726,-88.7763,STREAM
AJG-17,HAYES CREEK,RT 145 BR 2 MI E GLENDALE,37.46343,-88.63042,STREAM
AJG-18,HAYES CREEK,1.5 MI S ROBBS,37.44274,-88.70065,STREAM
AJK-01,BAY CREEK DITCH,0.3 MI E HOLMES CORNER,37.32486,-88.63359,STREAM
AK-02,LUSK CREEK,"EDDYVILLE RD BR, 3 MI SE OF SR 145 AND EDDYVILLE",37.47243,-88.54772,STREAM AMBIENT
AK-07,LUSK CREEK,2.5 MI ENE EDDYVILLE,37.50618,-88.5364,STREAM
AL-01,BIG GRAND PIERRE CREEK,RT 146 BR 2 MI W RT,37.45893,-88.43014,STREAM
ALA-11,LITTLE GRAND PIERRE CREEK,50 YDS UPS FROM RT 146,37.4452778,-88.465,STREAM
AN-01,THREEMILE CREEK,THREEMILE CREEK RD 1.8 MI NW OF ROSICLARE,37.442,-88.374,STREAM
AO-03,BIG CREEK,0.3 MI UPS CONFL WITH GOOSE CR,37.498,-88.32774,STREAM
AQ-02,PETERS CREEK,CO RD 925E 0.4 MI NW PETERS CREEK,37.49333333,-88.23944444,STREAM
AR-01,HANEY CREEK,4.7 MI NE CAVE-IN-ROCK CAMP ROAD,37.491111,-88.085278,STREAM
AT-01,SALINE RIVER,AT SALINE MINES,37.6139,-88.19726,STREAM
AT-05,SALINE RIVER,BR SE EQUALITY,37.72985,-88.34812,STREAM
ATB-01,HARRIS CREEK,HARRIS CREEK RD 1.4 MI SE OF CADIZ,37.565,-88.208,STREAM
ATBA-01,ROCK CREEK,ROCK CREEK RD 3 MI S OF CADIZ,37.537,-88.231,STREAM
ATE-07,EAGLE CREEK,1.3 MI E KEDRON AT PEABODY RD,37.66027778,-88.31583333,STREAM
ATF-03,NORTH FORK SALINE RIVER,RT 13 BR 0.3 MI NE EQUALITY,37.74373,-88.32994,STREAM
ATF-06,NORTH FORK SALINE RIVER,2.2 MI NW RIDGWAY,37.8144,-88.2984,STREAM
ATF-08,NORTH FORK SALINE RIVER,"BUFFALO RD BR, 0.25 MI E OF SCHOOL HOUSE RD AND 2.4 MI SE OF TEXAS CITY",37.8675556,-88.3508889,STREAM AMBIENT
ATFA-01,CRAWFORD CREEK,0.8 MI NW OF RIDGWAY AT CAMPGROUND ROAD,37.80527778,-88.27416667,STREAM
ATFD-01,BRUSH CREEK,COTTONWOOD RD 0.3 MI E OF TEXAS CITY,37.878,-88.387,STREAM
ATFE-01,RECTOR CREEK,4 MI N ELDORADO,37.88353,-88.43453,STREAM
ATFEA-01,LONG BRANCH,RALEIGH CHAPEL RD 5 MI N OF RALEIGH,37.899,-88.532,STREAM
ATFF-02,CONTRARY CREEK,2 MI SSE DALE,37.96573,-88.49436,STREAM
ATFFA-01,HOGG CREEK,CO RD 1000E 1.9 MI SW OF DALE,37.977,-88.522,STREAM
ATFH-01,WHEELER CREEK,2.8 MI E DALE,37.99478,-88.43856,STREAM
ATFJ-01,CANE CREEK,1.5 MI SW OF OMAHA,37.8683333,-88.3166667,STREAM
ATFJC-02,BEAR CREEK,WASHINGTON RD 1.6 MI W OF OMAHA,37.89,-88.331,STREAM
ATG-03,MIDDLE FORK SALINE RIVER,"INGRAM HILL RD BR, 0.3 MI E OF WATER HOLE RD AND 2.8 MI SE OF HARRISBURG",37.70778,-88.49194,STREAM AMBIENT
ATG-05,MIDDLE FORK SALINE RIVER,1.2 MI S GALATIA,37.81905,-88.61455,STREAM
ATGC-01,BANKSTON FORK,RT 34 BR 2.5 MI N HARRISBURG,37.76799,-88.54016,STREAM AMBIENT INACTIVE
ATGC-02,BANKSTON FORK,2 MI N CARRIER MILLS,37.72794,-88.63398,STREAM
ATGH-09,BANKSTON TRIB-BRUSHY CREEK,0.5 MI UPS BANKSTON FORK,37.76091,-88.60596,STREAM
ATH-02,SOUTH FORK SALINE RIVER,"SARAVILLE RD BR, 0.2 MI N OF STONEFORT RD AND 3.6 MI S OF CRAB ORCHARD",37.67778,-88.80331,STREAM AMBIENT INACTIVE
ATH-05,SOUTH FORK SALINE RIVER,RT 45 BR 4 MI SW CARRIER MILLS,37.6379,-88.67759,STREAM AMBIENT
ATH-11,SOUTH FORK SALINE RIVER,3.5 MI SE MARION AT RT 166 BR,37.67782,-88.86021,STREAM
ATHC-01,BATTLE FORD CREEK,1.4 MI SW MITCHELLSVILLE,37.63261,-88.55498,STREAM
ATHD-01,LITTLE SALINE RIVER,3 MI S CARRIER MILLS,37.63948,-88.62552,STREAM
ATHD-03,LITTLE SALINE RIVER,1.8 MI SSE STONEFORT,37.58858,-88.69808,STREAM
ATHE-01,POND CREEK,BATTLEFORD RD 0.4 MI E OF STONEFORT,37.613,-88.699,STREAM
ATHG-01,SUGAR CREEK,"STONEFORT RD (CR 12) BR, 0.4 MI N OF PALZO RD AND 4.7 MI NE OF CREAL SPRINGS",37.65511,-88.76338,STREAM AMBIENT
ATHG-02,SUGAR CREEK,0.5 MI E CREAL SPRING AT RT 166 BR,37.61687,-88.82806,STREAM
ATHG-03,SUGAR CREEK,1 MI ENE CREAL SPRINGS,37.62278,-88.81183,STREAM
ATHG-05,SUGAR CREEK,TYLER BR RD 3.4 MI  NE OF CREAL SPRINGS AND UPS OF PALZO AREA,37.65221,-88.78978,STREAM AMBIENT INACTIVE
ATZM-05,CYPRESS DITCH,PARKER RD 1.1 MI SW OF JUNCTION,37.717,-88.257,STREAM
BB-01,FRENCH CREEK,2 MI SW GRAYVILLE AT CO RD 2400N BR,38.23033,-88.01779,STREAM
BC-02,BONPAS CREEK,RT 15 BR 0.6 MI NE OF BROWNS,38.38635,-87.97538,STREAM AMBIENT INACTIVE
BC-04,BONPAS CREEK,5 MI NW WEST SALEM CO RD 2320N,38.55882,-87.9559,STREAM
BCE-02,LITTLE BONPAS CREEK,CO RD 2320N BR 1.8 MI NW LANCASTER,38.55916667,-87.89861111,STREAM
BD-01,COFFEE CREEK,3 MI NE KEENSBURG ON CO RD 850E RD,38.36158,-87.8303,STREAM
BD-02,COFFEE CREEK,CO RD 700E BR 1 MI NE KEENSBURG AND S OF RT 1,38.36138889,-87.85444444,STREAM
BE-03,EMBARRAS RIVER,RT 1 BR N EDGE LAWRENCEVILLE,38.73283,-87.68631,STREAM
BE-04,EMBARRAS RIVER,RT 130 NE EDGE NEWTON,38.99599,-88.14544,STREAM
BE-07,EMBARRAS RIVER,CO RD 1900 E BR (MAIN ST) N EDGE OF STE. MARIE,38.937,-88.02219,STREAM AMBIENT
BE-09,EMBARRAS RIVER,"CO RD 1400 N AT RYAN BR, 6 MI NE OF TOLEDO NEAR DIONA",39.34419,-88.17068,STREAM AMBIENT
BE-14,EMBARRAS RIVER,CO RD 1000 N BR (MAIN ST)W EDGE OF CAMARGO,39.79973,-88.17041,STREAM AMBIENT
BE-15,EMBARRAS RIVER,RT 121 BR GREENUP,39.25087,-88.1734,STREAM
BE-17,EMBARRAS RIVER,4 MI NW ASHMORE AT AIRTIGHT BR,39.55499,-88.08938,STREAM
BE-25,EMBARRAS RIVER,5 MI NE PESOTUM,39.9363889,-88.1911111,STREAM
BE-30,EMBARRAS RIVER,4 MI S CHARLESTON WALKER FD,39.4202778,-88.1775,STREAM
BE-36,EMBARRAS RIVER,2 MI S OF FALMOUTH,39.0530556,-88.1808333,STREAM
BE-96,EMBARRAS RIVER,0.25 MI DNS LAKE CHARLESTON,39.45714,-88.14699,STREAM
BEA-01,MUDDY CREEK-SOUTH,4 MI N BRIDGEPORT TWP RD,38.77038,-87.75994,STREAM
BEB-05,BRUSHY CREEK,CO RD 1650N BR 6 MI N LAWRENCEVILLE,38.814778,-87.67525,STREAM
BED-01,BIG CREEK,2.5 MI W HARDINVILLE,38.91621,-87.88361,STREAM
BED-03,BIG CREEK,4 MI E AND 2 MI N OBLONG,39.0491667,-87.8261111,STREAM
BED-04,BIG CREEK,1.5 MI E PIERCEBURG,38.9308389,-87.8819194,STREAM
BEDB-02,DOGWOOD CREEK,CO RD 900N BR 1.1 MI SE OBLONG,38.98236111,-87.88533333,STREAM
BEF-02,NORTH FORK EMBARRAS RIVER,5 MI SE CASEY TWP RD,39.26453,-87.90773,STREAM
BEF-03,NORTH FORK EMBARRAS RIVER,RT 33 BR W OBLONG,39.01023,-87.9466,STREAM
BEF-05,NORTH FORK EMBARRAS RIVER,CO RD 1050 N BR 2 MI W OF OBLONG,39.00017,-87.9448,STREAM AMBIENT
BEF-08,NORTH FORK EMBARRAS RIVER,1.5 MI NW MARTINSVILLE,39.3513889,-87.9027778,STREAM
BEFA-04,WILLOW CREEK,CO RD 1500N BR 4.5 MI N OF OBLONG,39.071111,-87.923056,STREAM
BEH-01,MINT CREEK,CO RD 760E BR 4.3 MI ENE OF WHEELER,39.05542,-88.23356,STREAM
BEI-01,RANGE CREEK,2 MI NNW HILDAGO AT LOW WATER FORD,39.1794444,-88.1633333,STREAM
BEJ-03,MUDDY CREEK-NORTH,0.7 MI N WOODBURY,39.20521,-88.29403,STREAM
BEJ-06,MUDDY CREEK-NORTH,CO RD 600N BR 4.7 MI N WOODBURY,39.25855556,-88.30333333,STREAM
BEL-01,HURRICANE CREEK,4 MI N GREENUP AT RT 130 BR,39.30726,-88.13906,STREAM
BEL-03,HURRICANE CREEK,3 MI N UNION CENTER,39.3767361,-88.0830556,STREAM
BEN-01,KICKAPOO CREEK,1 MI SSW CHARLESTON,39.46252,-88.19315,STREAM
BEN-02,KICKAPOO CREEK,"CR 1320 E BR, 0.3 MI N OF CR 590 N AND 2 MI SW OF CHARLESTON",39.465059,-88.23024,STREAM
BENA-01,RILEY CREEK,0.5 MI W CHARLESTON TWP RD,39.47619,-88.20609,STREAM
BENA-02,RILEY CREEK,2.1 MI N OF COLES AIRPORT,39.5105556,-88.29,STREAM
BENA-03,RILEY CREEK,1.2 MI W OF CHARLESTON,39.4866667,-88.2097222,STREAM
BENC-01,RILEY-CASSELL CREEK,POLK AVE 0.5 MI W CHARLESTON,39.48776,-88.2094,STREAM
BEO-01,POLECAT CREEK,3.5 MI SW ASHMORE TWP RD,39.50559,-88.07242,STREAM
BEP-02,LITTLE EMBARRAS RIVER,5.5 MI N ASHMORE,39.6158333,-88.0261111,STREAM
BEPC-01,DONICA CREEK,"CO RD 2700E, 2.5 MI SE OF OAKLAND",39.634,-87.984,STREAM
BEPD-01,CATFISH CREEK,1.5 MI NNE BORTON TWP RD,39.67304,-87.9268,STREAM
BEPH-01,HICKORY GROVE CREEK,1.75 MI NW REDMON,39.65652,-87.89131,STREAM
BER-03,SCATTERING FORK,4 MI N FILSON,39.7511111,-88.2319444,STREAM
BERB-01,HACKETT BRANCH,2 MI SE TUSCOLA TWP RD,39.76806,-88.24236,STREAM
BES-01,JORDAN SLOUGH,HENSON RD N VILLA GROVE,39.87477,-88.15091,STREAM
BET-01,EAST BRANCH,2 MI NW VILLA GROVE TWP RD,39.89404,-88.17948,STREAM
BEZB-07,INDIAN CREEK,RT 1 BR 1.5 MI S LAWRENCEVILLE,38.69245,-87.69367,STREAM
BEZF-01,ALLISON DITCH,2.25 MI E BILLETT CO RD #13 BR,38.66303,-87.60669,STREAM
BEZY-01,DEER CREEK,"CO RD 1775E, 2 MI N OF HINDSBORO",39.7108,-88.1395,STREAM
BEZZ-02,BRUSHY FORK,5 MI NE HINDSBORO TWP RD,39.73707,-88.06963,STREAM
BEZZ-05,BRUSHY FORK,4.3 MI SW OF NEWMAN,39.7633333,-88.0525,STREAM
BFB-13,LAMOTTE CREEK,RT 33 BR SE EDGE PALESTINE,38.995,-87.60756,STREAM
BFC-11,ROBINSON CREEK,"SR 1, 2.1 MI E ROBINSON AND 0.3 MI N OF GORDON",39.01296,-87.68484,STREAM
BG-01,RACCOON CREEK,0.75 MI S OF WEST YORK,39.1575,-87.6783333,STREAM
BH-05,MILL CREEK,2 MI SW HATTON,39.2669444,-87.6966667,STREAM
BJ-01,BIG CREEK,5 MI SE MARSHALL,39.35639,-87.60513,STREAM
BL-01,CLEAR CREEK,CO RD 2630E BR 1 MI N INTERSTATE 70 AT INDIANA STATE LINE,39.4494444,-87.53138889,STREAM
BM-01,SUGAR CREEK-NORTH,1 MI N ELBRIDGE,39.52905,-87.58295,STREAM
BN-04,BROUILLETTS CREEK,"3.8 MI W OF ST BERNICE, IN",39.7055556,-87.5947222,STREAM
BNB-01,CRABAPPLE CREEK,3 MI S AND 3.5 MI E OF CHRISMAN,39.7605556,-87.5925,STREAM
BNB-04,CRABAPPLE CREEK,2 MI SOUTH OF SCOTTLAND,39.7734167,-87.6060833,STREAM
BNBB-01,SALT FORK CRABAPPLE CREEK,"CO RD 950N, 7 MI SE OF CHRISMAN",39.7449,-87.5724,STREAM
BO-02,LITTLE VERMILION RIVER,3 MI ESE GEORGETOWN,39.96394,-87.57252,STREAM
BO-04,LITTLE VERMILION RIVER,"SE EDGE GEORGETOWN, FLIERMAN NATURE PRESERVE",39.96528,-87.62958,STREAM
BO-07,LITTLE VERMILION RIVER,CO RD 500 N BR 4.5 MI SE OF GEORGETOWN,39.94126,-87.55143,STREAM AMBIENT
BO-08,LITTLE VERMILION RIVER,CO RD 370N AT RR TRESTLE 0.75 MI NE SIDELL,39.92031,-87.80463,STREAM
BOB-01,YANKEE BRANCH,CO RD 500N BR 1.5 MI NW OF HUMRICK,39.94109444,-87.56575,STREAM
BOD-01,FAYETTE DRAIN,2 MI NE OF INDIANOLA,39.9511111,-87.7072222,STREAM
BOM-VG-A1,U-TRIB LITTLE VERMILION RIVER,75 FT UPSTREAM BLACK BEAUTY DISCHARGE ADJ TO 1400E,39.9366667,-87.6746111,STREAM FACILITY
BOM-VG-C1,U-TRIB LITTLE VERMILION RIVER,100 YDS DNS BLACK BEAUTY DISCHARGE,39.9377778,-87.6744444,STREAM FACILITY
BO-VG-C2,LITTLE VERMILION RIVER,100 YDS DNS CONFLUENCE WITH LITTLE VERMILION RIVER TRIB,39.944444,-87.6763888,STREAM FACILITY
BO-VG-D1,LITTLE VERMILION RIVER,100 FT UPS CONFLUENCE WITH LITTLE VERMILION RIVER TRIB,39.9442777,-87.6793888,STREAM FACILITY
BP-03,VERMILION RIVER,VERMILION COUNTY FOREST PARK CANOE LAUNCH 4MI E 0.5MI S WESTVILLE,40.0157,-87.54628,STREAM
BP-04,VERMILION RIVER,CO RD 1200E BR 2 MI N CATLIN,40.10243,-87.71567,STREAM
BP-09,VERMILION RIVER,"UPS OF DAM, 0.55 MI DNS OF CONFL WITH NORTH FORK",40.1222861,-87.6317528,STREAM
BP-10,VERMILION RIVER,"DNS OF DAM, 0.6 MI DNS OF CONFL W NORTH FORK",40.1207083,-87.6306111,STREAM
BPB-01,WHIPPORWILL BRANCH,CO RD 2100E BR 0.5 MI SE OF FOREST GLEN,39.9908639,-87.54221389,STREAM
BPE-03,GRAPE CREEK,TWIN HILLS RD BR 1.6 MI SE OF HEGLER,40.063425,-87.60665,STREAM
BPF-02,STONY CREEK,0.5 MI NE OF DANVILLE,40.186389,-87.59722,STREAM
BPG-09,NORTH FORK VERMILION RIVER,CO RD 2750 N 2 MI W BISMARCK,40.26549,-87.64306,STREAM AMBIENT
BPG-10,NORTH FORK VERMILION RIVER,US RT 136 BR 3 MI S HOOPESTON,40.41528,-87.68208,STREAM
BPG-12,NORTH FORK VERMILION RIVER,CO RD 4000N BR 1 MI SE HOOPESTON,40.444726,-87.662781,STREAM
BPGC-01,JORDAN CREEK,CO RD 1850E BR 3.5 MI NNE ALVIN,40.35567,-87.59791,STREAM
BPGC-02,JORDAN CREEK,CO RD 2100E 4 MI NE ALVIN,40.35417,-87.551393,STREAM
BPGE-01,MIDDLE BRANCH,0.75 MI W ALVIN,40.31078,-87.62259,STREAM
BPGE-02,MIDDLE BRANCH,3.4 MI E ROSSVILLE,40.37277,-87.60339,STREAM
BPJ-07,SALT FORK VERMILION RIVER,CO RD 1850N 2.5 MI N ST JOSEPH,40.14942,-88.03388,STREAM AMBIENT INACTIVE
BPJ-08,SALT FORK VERMILION RIVER,CO RD 1550 BR 3 MI WSW OF OAKWOOD,40.08826,-87.82503,STREAM
BPJ-09,SALT FORK VERMILION RIVER,CO RD 2200E 1.5 MI S OF ST JOSEPH,40.09174,-88.05079,STREAM
BPJ-12,SALT FORK VERMILION RIVER,CO RD 1200N 1.5 MI NW OF HOMER,40.05471,-87.98916,STREAM
BPJA-01,JORDAN CREEK,CO RD 630E 1.5 MI N FAIRMOUNT,40.06916,-87.82532,STREAM
BPJA-02,JORDAN CREEK,1 MI SSW OF FAIRMOUNT,40.0266667,-87.834444,STREAM
BPJB-03,STONY CREEK,CO RD 500E BR N EDGE OF MUNCIE,40.11808056,-87.844683,STREAM
BPJC-06,SALINE BRANCH,"CO RD 24 BR 1 MI N MAYVIEW, 4 MI E URBANA",40.13312,-88.10473,STREAM AMBIENT
BPJC-08,SALINE BRANCH,E FORD HARRIS RD 2 MI N URBANA AND 1 MI W US RT 45,40.17097,-88.20375,STREAM
BPJC-10,SALINE BRANCH,CO RD 1700N BR 2 MI WNW OF ST JOSEPH,40.12748889,-88.08,STREAM
BPJCA-02,BONEYARD CREEK,UPS OF GREGORY STREET BR IN URBANA,40.111019,-88.220525,STREAM
BPJCA-03,BONEYARD CREEK,DNS OF SPRINGFIELD AVE BR IN SCOTT PARK IN CHAMPAIGN,40.112208,-88.236808,STREAM
BPJCA-UC-D1,BONEYARD CREEK,DNS OF US 150 NEAR SYCAMORE STREET URBANA,40.1170055,-88.201375,STREAM FACILITY
BPJD-02,SPOON RIVER,CO RD 1950N 3.5 MI NNE ST JOSEPH,40.16411,-88.02736,STREAM
BPJG-01,UPPER SALT FORK DRAINAGE DITCH,CO RD 1900E BR 4 MI S AND 2 MI E RANTOUL,40.24513,-88.09747,STREAM
BPK-07,MIDDLE FORK VERMILION RIVER,CO RD 1855 N BR IN KICKAPOO ST PK 2 MI NE OF OAKWOOD,40.13684,-87.74571,STREAM AMBIENT
BPK-10,MIDDLE FORK VERMILION RIVER,CO RD 900E BR AT CANOE LAUNCH 2 MI ENE OF COLLISON,40.23517,-87.77201,STREAM
BPK-13,MIDDLE FORK VERMILION RIVER,CO RD 3500N BR 5 MI N PENFIELD,40.38508,-87.96425,STREAM
BPKA-01,GLENBURN CREEK,2.25 MI NE OAKWOOD IN ST PK,40.13877,-87.75367,STREAM
BPKF-02,KNIGHTS BRANCH,CO RD 2700N BR 2 MI NW OF COLLISON,40.255675,-87.82486944,STREAM
BPKI-02,BLUEGRASS CREEK,1.25 MI NW OF POTOMAC,40.32917,-87.8075,STREAM
BPKL-01,PRAIRIE CREEK,5 MI SE OF PAXTON CO LINE BR 3600N,40.400414,-88.02207,STREAM
BPKL-02,PRAIRIE CREEK,CO RD 2300E BR 6 MI N OF GIFFORD,40.38608056,-88.0260389,STREAM
BPKP-05,BIG FOUR DITCH,CO RD 500N BR 2 MI E ELLIOTT,40.47262,-88.2097,STREAM
BPZA-01,U-TRIB VERMILION RIVER,(AKA WILLOW CREEK) IN FOREST GLEN PARK BELOW LAKE,40.015425,-87.5742,STREAM
BZJ-01,CRAWFISH CREEK,"CO RD 1780E BR W OF 1200E, 4 MI N MOUNT CARMEL",38.47777778,-87.76027778,STREAM
BZK-01,RACCOON CREEK,4 MI WSW FRANCISVILLE ON CO RD 050N,38.57558,-87.72488,STREAM
BZO-01,HUTSON CREEK,2 MI S OF HUTSONVILLE,39.0850556,-87.66,STREAM
C-01,LITTLE WABASH RIVER,RT 141 N EDGE NEW HAVEN,37.91211,-88.12854,STREAM
C-02,LITTLE WABASH RIVER,WATER INTAKE NE EDGE CARMI,38.09904,-88.16136,STREAM
C-05,LITTLE WABASH RIVER,WATER INTAKE SE LOUISVILLE,38.77214,-88.4976,STREAM
C-09,LITTLE WABASH RIVER,SALEM MT ERIE RD BR 0.5 MI S BENNINGTON,38.51842,-88.13199,STREAM AMBIENT
C-11,LITTLE WABASH RIVER,2 MI SE LOUISVILLE ON FARM RD,38.75201,-88.48049,STREAM
C-12,LITTLE WABASH RIVER,RT 37 BR NE MASON,38.99043,-88.58782,STREAM
C-19,LITTLE WABASH RIVER,NE EDGE LOUISVILLE,38.77568,-88.49086,STREAM AMBIENT INACTIVE
C-21,LITTLE WABASH RIVER,RT 40 BR 2.2 MI SW EFFINGHAM,39.10399,-88.59393,STREAM AMBIENT
C-22,LITTLE WABASH RIVER,"WILCOX BRIDGE LN BR, 400 FT E OF GOLDENROD LN AND 4.5 MI SE OF CLAY CITY",38.63455,-88.29743,STREAM AMBIENT
C-24,LITTLE WABASH RIVER,1 MI S LAKE PARADISE DAM,39.39732,-88.44361,STREAM
C-25,LITTLE WABASH RIVER,0.1 MI UPS GREEN CR CONFL EFFINGHAM,39.14879,-88.57639,STREAM
C-33,LITTLE WABASH RIVER,6 MI WNW GRAYVILLE,38.26991,-88.1377,STREAM
CA-02,SKILLET FORK,4 MI ESE SPRINGERTON,38.16361,-88.28388,STREAM
CA-03,SKILLET FORK,"CR 1125 E BR, 0.3 MI S OF CR 1925 N AND 4 MI N OF CARMI",38.15473,-88.16407,STREAM AMBIENT INACTIVE
CA-06,SKILLET FORK,"SR 161 EXT (300N) BR, 1 MI E OF UNION TOWN AND 1 MI NW OF HELM",38.51944,-88.72713,STREAM AMBIENT INACTIVE
CA-07,SKILLET FORK,2 MI W CRISP AT FORD,38.43937,-88.62636,STREAM
CA-08,SKILLET FORK,2.5 MI SE IUKA AT FORD,38.58919,-88.7472,STREAM
CA-09,SKILLET FORK,2 MI E FORBES FISH HATCHERY,38.70823,-88.70305,STREAM
CAGB-01,BIG CREEK DITCH,ROUTE 242 BR 4 MI N MCLEANSBORO,38.16194444,-88.53888889,STREAM
CAGC-01,AUXIER CREEK,2 MI NW BELLE PRAIRIE CITY,38.2323,-88.51974,STREAM
CAGC-02,AUXIER CREEK,CO RD 2350E 1.5 MI NE OF BELLE RIVE,38.2456389,-88.7120278,STREAM
CAJ-01,DRY FORK,1.5 MI SE SIMS,38.34855,-88.50918,STREAM
CAJ-02,DRY FORK,CO RD 1100E 2.1 MI E OF SIMS,38.362667,-88.494722,STREAM
CAK-01,FOURMILE CREEK,CO RD 450N 1.6 MI S-SW OF KEENES,38.3155278,-88.658889,STREAM
CAN-01,HORSE CREEK,CO RD 200E BR 2.7 MI NNW KEENES,38.37659,-88.66236,STREAM
CAN-02,HORSE CREEK,CO RD 2050N 2.2 MI NE OF HARMONY,38.42525,-88.755611,STREAM
CAR-01,BRUSH CREEK,CO RD 1500N BR 3.3 MI NW CRISP,38.47579,-88.63467,STREAM
CAW-02,DUMS CREEK,"QUAIL RUN RD, 3.2 MI SSE BRUBAKER",38.63527778,-88.85138889,STREAM
CAW-04,DUMS CREEK,CO RD 2025E BR 2.5 MI NE IUKA,38.65378,-88.7673,STREAM
CD-01,ELM RIVER,"CR 2400 E AT PRICE BRIDGE, 0.3 MI N OF CR 1250 N AND 6.5 MI NE OF FAIRFIELD",38.44065,-88.2581,STREAM AMBIENT
CD-04,ELM RIVER,2 MI N ENTERPRISE,38.55826,-88.35528,STREAM
CD-08,ELM RIVER,CO RD 1800N BR 2 MI ESE ENTERPRISE,38.5114167,-88.3261111,STREAM
CD-09,ELM RIVER,"CO RD 2200N, 3.7 MI NNE OF ENTERPRISE",38.573611,-88.3680278,STREAM
CDB-01,DEER CREEK,"CO RD 1750E, 3.1 MI NE GEFF",38.481278,-88.3754167,STREAM
CDF-02,RACCOON CREEK,2.5 MI N RINARD,38.61161,-88.47175,STREAM
CE-02,VILLAGE CREEK,4 MI NNE GOLDEN GATE,38.4148889,-88.16575,STREAM
CG-02,SUGAR CREEK,"CO RD 2200N, 1.5 MI SE OF SEMINARY",38.570194,-88.093806,STREAM
CH-03,FOX RIVER,1 MI WNW OLNEY,38.74501,-88.11096,STREAM
CH-11,FOX RIVER,6 MI SE NOBLE AT FORD,38.62673,-88.15151,STREAM
CHEA-02,BIG CREEK,CR 1075 E BR 2 MI S OF OLNEY AND 2.5 MI DNS ROADMASTER CORP,38.6863,-88.0986,STREAM
CHEA-11,BIG CREEK,2 MI S OLNEY AT RT 130 BR,38.6871,-88.08463,STREAM
CJ-04,BIG MUDDY CREEK,3 MI E CLAY CITY AT RT 50 BR,38.68684,-88.284,STREAM
CJ-06,BIG MUDDY CREEK,2 MI WSW INGRAHAM ON CO RD 1550N NEAR TURKEY PT,38.83016,-88.36425,STREAM
CJA-02,LITTLE MUDDY CREEK,2 MI ENE CLAY CITY,38.70342,-88.31328,STREAM
CJAE-01,BIG MUDDY DIVERSION,0.5 MI N RT 50 BR 3.2 MI E OF CLAY CITY,38.69006,-88.295,STREAM
CM-02,DISMAL CREEK,2 MI E IOLA,38.83827,-88.5891,STREAM
CO-01,BISHOP CREEK,CO RD 300N BR 5 MI ENE MASON,38.9577778,-88.5283333,STREAM
COC-10,DIETERICH CREEK,3 MI SW DIETERICH,39.02727,-88.41771,STREAM
CP-04,SALT CREEK,RT 40 E EFFINGHAM,39.12205,-88.52365,STREAM
CPC-TU-C1,FIRST SALT CREEK,"0.1 MI DNS TEUTOPOLIS STP, N EDGE OF TEUTOPOLIS",39.14,-88.472,STREAM FACILITY
CPD-01,SECOND SALT CREEK,1.25 MI N TEUTOPOLIS,39.15472,-88.47851,STREAM
CPE-EF-C1,EFFINGHAM SEWAGE DISPOSAL CREEK,"0.1 MI DNS EFFINGHAM STP, IMMEDIATELY UPS CONFL SALT CREEK",39.1051055,-88.5312833,STREAM FACILITY
CS-12,GREEN CREEK,3 MI N EFFINGHAM,39.17183,-88.55625,STREAM
CSB-07,EAST BRANCH GREEN CREEK,1.8 MI S SIGEL,39.19773,-88.49381,STREAM
CT-01,WEST BRANCH LITTLE WABASH RIVER,5 MI W NEOGA,39.3165,-88.54472,STREAM
DA-03,MACOUPIN CREEK,"RT 67 BR SE ROCKBRIDGE, ACCESS AT DNS FORD",39.26223,-90.19475,STREAM
DA-10,MACOUPIN CREEK,CO RD 650N BR 4 MI WNW KANE,39.21077,-90.42773,STREAM
DA-11,MACOUPIN CREEK,COOPS MOUND RD 2 MI SE OF STANDARD CITY,39.316667,-89.773056,STREAM
DA-12,MACOUPIN CREEK,CO RD 2100E AT OLD BR 3.7 MI SW OF ROCKBRIDGE,39.2174,-90.2202,STREAM
DAE-01,PHILS CREEK,EAST KANE RD BR 3.5 MI E OF KANE,39.190442,-90.288783,STREAM
DAF-01,TAYLOR CREEK,2.7 MI SW OF ROCKBRIDGE,39.256944,-90.24944,STREAM
DAG-03,HODGES CREEK,CHISM RD BR 3.5 MI NE OF ROCKBRIDGE,39.283842,-90.139167,STREAM
DAGB-01,BEAR CREEK,1 MI N OF CHESTERFIELD,39.26875,-90.0692222,STREAM
DAZD-01,WINES BRANCH,CO RD 1000E BR 4 MI WNW OF KANE FORD,39.194931,-90.429425,STREAM
DAZI-01,COOP BRANCH,COOP RD BR 3 MI E MEDORA,39.18355,-90.090611,STREAM
DB-03,APPLE CREEK,CO RD 675E BR 1.5 MI E HAYPRESS,39.35947,-90.49547,STREAM
DB-97,APPLE CREEK,CO RD 2300N BR 6.5 MI E WHITE HALL,39.44759,-90.25513,STREAM
DC-04,BIG SANDY CREEK,1.5 MI N OF GLASGOW,39.56644,-90.486583,STREAM
DC-05,BIG SANDY CREEK,3 MI E OF WINCHESTER,39.63333,-90.390389,STREAM
DCA-01,LITTLE SANDY CREEK,PATTERSON RD BR 1 MI S GLASGOW,39.538452,-90.483475,STREAM
DCB-01,NORTH LITTLE SANDY CREEK,CLAY HOLLOW RD BR 2 MI NE ALSEY,39.580783,-90.411175,STREAM
DD-04,MAUVAISE TERRE CREEK,MCGLASSON RD BR 1.5 MI NE OF MERRITT,39.73139,-90.40736,STREAM AMBIENT
DD-05,MAUVAISE TERRE CREEK,WEST EDGE OF EXETER,39.72094,-90.50193,STREAM
DDC-12,NORTH FORK MAUVAISE TERRE CREEK,WOHLERS RD BR 3 MI E OF JACKSONVILLE,39.7479722,-90.1638333,STREAM
DE-05,MCKEE CREEK,0.75 MI SW BENVILLE TWP RD,39.85837,-90.87454,STREAM
DE-07,MCKEE CREEK,CO RD 1225E AT FORD 2 MI SW VERSAILLES,39.85017,-90.68057,STREAM
DE-08,MCKEE CREEK,CO RD 3000N ON BROWN/PIKE CO LINE 4 MI SE SILOAM SPRINGS STATE PARK,39.8411111,-90.8644444,STREAM
DE-11,MCKEE CREEK,CO RD 2500E BR 5 MI NE LIBERTY,39.928056,-91.030417,STREAM
DEA-02,SOUTH FORK MCKEE CREEK,"RT 107 BR, 3 MI N GRIGGSVILLE",39.759417,-90.725917,STREAM
DEAA-01,MIDDLE FORK SOUTH FORK MCKEE,"W PERRY SPRINGS RD, 1.5 MI NE PERRY",39.792917,-90.717092,STREAM
DEJ-01,FISHHOOK CREEK,5 MI S KELLERVILLE,39.85291,-90.95686,STREAM
DEM-01,WALNUT FORK,3 MI S OF CLAYTON,39.977308,-90.963119,STREAM
DF-05,INDIAN CREEK,KORSMEYER RD BR 2 MI SE ARENZVILLE,39.86001,-90.33243,STREAM
DFE-01,PRAIRIE CREEK,KIRCHER RD BR 2 MI NE ARENZVILLE,39.905102,-90.351786,STREAM
DG-01,LA MOINE RIVER,"OLD US 24 (1500E) BR, 0.2 MI E OF US 24 AND 0.4 MI NE OF RIPLEY",40.0248,-90.63144,STREAM AMBIENT
DG-07,LA MOINE RIVER,CO RD 6 BR 1.25 MI W COLMAR,40.34361,-90.91375,STREAM
DG-10,LA MOINE RIVER,1 MI W LACROSSE TWP RD BR,40.53167,-91.04097,STREAM
DG-12,LA MOINE RIVER,GREENWELL RD BR 3 MI NE CAMDEN,40.1688889,-90.7163889,STREAM
DG-16,LA MOINE RIVER,CO RD 660E BR 1 MI N AND 0.6 MI W OF BROOKLYN,40.235567,-90.78233,STREAM
DGD-02,MISSOURI CREEK,3 MI SW CAMDEN DIRT ROAD,40.12373,-90.81455,STREAM
DGDA-01,LITTLE MISSOURI CREEK,IL RT 99 BR 3 MI S CAMDEN,40.10861,-90.76728,STREAM
DGG-02,CEDAR CREEK-SOUTH,1.25 MI S HUNTSVILLE TWP RD BR,40.17425,-90.85651,STREAM
DGHA-01,WILLIAMS CREEK,5.5 MI E AUGUSTA AT DIRT RD FORD,40.2368,-90.86292,STREAM
DGI-01,CAMP CREEK,3.5 MI S FANDON TWP RD BR,40.31972,-90.7543,STREAM
DGIA-03,GRINDSTONE CREEK,4.5 MI S FANDON CO RD #8,40.30171,-90.7535,STREAM
DGJ-01,TROUBLESOME CREEK,3 MI S COLCHESTER,40.37519,-90.79129,STREAM
DGL-03,EAST FORK LA MOINE RIVER,1.5 MI NW COLCHESTER TWP RD BR,40.43384,-90.824,STREAM
DGL-07,EAST FORK LA MOINE RIVER,NR WESTERN IL UNIV GOLF COURSE,40.47861,-90.68708,STREAM
DGL-09,EAST FORK LA MOINE RIVER,CO RD 1800E BR 1 MI N OF BARDOLPH,40.5115,-90.5607,STREAM
DGLC-01,DROWNING FORK,2 MI SW BUSHNELL TWP RD BR,40.52887,-90.54169,STREAM
DGLD-01,FARMERS FORK,2 MI N BARDOLPH TWP RD BR,40.52817,-90.56868,STREAM
DGO-01,ROCK CREEK,2 MI SE BURNSIDE TWP RD BR,40.48278,-91.08125,STREAM
DGP-01,LAHARPE CREEK,1.5 MI NW WEBSTER TWP RD BR,40.48011,-91.02032,STREAM
DGPC-01,BAPTIST CREEK,3.2 MI N FOUNTAIN GREEN,40.52115,-90.95651,STREAM
DGPCA-01,LITTLE CREEK,CO RD 2300N BR 3 MI S LAHARPE,40.53392,-90.96477,STREAM
DH-04,SUGAR CREEK,S FLATWOODS RD 2 MI NW RAY,40.2313889,-90.4927778,STREAM
DI-02,OTTER CREEK,BRANSON SCHOOL RD 2.5 MI NE SUMMUM,40.28837,-90.23855,STREAM
DJ-02,SPOON RIVER,"RT 150 BR 2.5 MI SE OF DAHINDA, RM 100",40.9075,-90.0868,STREAM AMBIENT INACTIVE
DJ-04,SPOON RIVER,"RT 116 BR AT LONDON MILLS, RM 69.2",40.7079,-90.28024,STREAM
DJ-06,SPOON RIVER,"RT 17 BR 2 MI W OF WYOMING, RM 136.1",41.06287,-89.79532,STREAM AMBIENT INACTIVE
DJ-09,SPOON RIVER,"2ND ST (925E) BR, 0.5 MI N OF SR 116 ON N EDGE OF LONDON MILLS, RM 70.1",40.71364,-90.26585,STREAM AMBIENT
DJ-12,SPOON RIVER,"3 MI S LEWISTOWN AT OLD BRIDGE SITE, RM 7.2",40.33723,-90.12958,STREAM
DJ-14,SPOON RIVER,"CO RD 2350N, BUCKEYE BR 3.5 MI NW OF SMITHFIELD, RM 44.7",40.53186,-90.31078,STREAM
DJB-18,BIG CREEK,"N GALE RD BR, 0.5 MI N OF OSCAR LINN HWY AND 2 MI SW OF BRYANT",40.45872,-90.13343,STREAM AMBIENT INACTIVE
DJBZ-01,SLUG RUN,PRIVATE RD 2.5 MI NW OF BRYANT,40.47334,-90.14375,STREAM AMBIENT INACTIVE
DJC-01,SHAW CREEK,"CO RD 325E, 1.5 MI NNW MARIETTA",40.51964,-90.38065,STREAM
DJC-02,SHAW CREEK,"CO RD 2200 E, 1.6 MI NE OF MARIETTA UPS AT FORD",40.50964,-90.36353,STREAM
DJD-02,PUT CREEK,"CO RD 2300N, 3 MI S BLYTON",40.52406,-90.26891,STREAM
DJDB-01,TURKEY CREEK,4 MI NW OF FIATT,40.5894444,-90.2308611,STREAM
DJDB-03,TURKEY CREEK,"1 MI SE OF BLYTON, DNS LOST GROVE CONFL",40.556575,-90.260325,STREAM
DJE-02,COAL CREEK,CO RD 1100E BR 4 MI SE LONDON MILLS,40.65774,-90.23334,STREAM
DJF-02,CEDAR CREEK,"CO RD 3400N, 3.5 MI SW LONDON MILLS",40.69073,-90.33635,STREAM
DJF-04,CEDAR CREEK,"CO RD 1050N, 2 MI SW BERWICK",40.78166,-90.57074,STREAM
DJF-06,CEDAR CREEK,"CO RD 1475E, 3.5 MI SSE BERWICK",40.7535,-90.509,STREAM
DJFB-01,SWAN CREEK,CO RD 1500E 2.5 MI SE GREENBUSH,40.68472,-90.50152,STREAM
DJFBB-01,NEGRO CREEK,CO RD 600N 1 MI NW GREENBUSH,40.715917,-90.550008,STREAM
DJFBB-02,NEGRO CREEK,"CO RD 1050E, 4.2 MI NE ROSEVILLE",40.749675,-90.586967,STREAM
DJFD-01,CEDAR FORK,CO RD 900N BR 4 MI SE BERWICK,40.75945,-90.46819,STREAM
DJG-01,LITTLERS CREEK,CO RD 1300E BR 2 MI NW RAPATEE,40.73599,-90.2003,STREAM
DJH-01,HAW CREEK,3.5 MI SW MAQUON AT CO RD 400N BR,40.77229,-90.22214,STREAM
DJH-02,HAW CREEK,2.5 MI WSW GILSON,40.85303,-90.24674,STREAM
DJH-03,HAW CREEK,3 MI S KNOXVILLE AT CO RD 950E BR,40.8497222,-90.2613889,STREAM
DJHD-01,BRUSH CREEK,4 MI E ABINGDON,40.80115,-90.31751,STREAM
DJI-01,FRENCH CREEK,CO RD 2000E BR 4 MI NW YATES CITY,40.80846,-90.06201,STREAM
DJJ-03,COURT CREEK,0.5 MI W DAHINDA,40.9274,-90.12807,STREAM
DJJ-04,COURT CREEK,CO RD 1600E BR 1.5 MI W DAHINDA,40.92954,-90.13942,STREAM
DJJB-03,NORTH CREEK,"CO RD 1700N, 5 MI ENE EAST GALESBURG",40.96148,-90.20965,STREAM
DJK-03,WALNUT CREEK,"CO RD 2000E 2 MI E AND 2.5 M N VICTORIA, OLD BRIDGE SITE",41.065094,-90.071744,STREAM
DJK-04,WALNUT CREEK,CO RD 1450E BR 3.5 MI SW OF LA FAYETTE,41.06165,-89.994511,STREAM
DJL-02,INDIAN CREEK,CO RD 450N BR 3.5 MI SW WYOMING,41.04054,-89.83424,STREAM
DJM-01,CAMP RUN,CO RD 1300E 4 MI SSE WYOMING,41.0093,-89.73512,STREAM
DJMAA-01,PRINCE RUN,CO RD 22300N BR 2 MI N OF PRINCEVILLE,40.9598139,-89.7720694,STREAM
DJN-02,EAST FORK SPOON RIVER,CO RD 1300E BR 4 MI SW BRADFORD,41.16085,-89.73506,STREAM
DJNA-01,COOPERS DEFEAT CREEK,CO RD 1300E BR 1.8 MI NE MODENA,41.1496111,-89.735,STREAM
DJO-01,WEST FORK SPOON RIVER,RT 93 BR 2 MI E ELMIRA,41.18065,-89.78837,STREAM
DJZA-01,TATER CREEK,1.5 MI NW DUNCAN MILLS,40.3472222,-90.2125,STREAM
DJZF-01,BARKER CREEK,"CO RD 250E, 1.8 MI S MARIETTA",40.47119,-90.39285,STREAM
DJZS-01,JACK CREEK,CO RD 1100N BR W MODENA,41.1341667,-89.77825,STREAM
DK-12,MACKINAW RIVER,"WAGONSELLER  RD (1200E) BR, 0.3 MI N OF WEIR RD AND 4 MI SW OF SOUTH PEKIN",40.44746,-89.69103,STREAM AMBIENT
DK-15,MACKINAW RIVER,3 MI NE MACKINAW,40.57056,-89.31847,STREAM
DK-16,MACKINAW RIVER,1 MI NW CONGERVILLE,40.62477,-89.23963,STREAM
DK-17,MACKINAW RIVER,3.5 MI NE CONGERVILLE,40.63961,-89.14809,STREAM
DK-19,MACKINAW RIVER,RT 121 BR 3 MI NW HOPEDALE DNS,40.43917,-89.46791,STREAM
DK-20,MACKINAW RIVER,CO RD 6 BR 4 MI W LEXINGTON,40.64825,-88.86269,STREAM
DK-21,MACKINAW RIVER,3 MI W COLFAX,40.57114,-88.67506,STREAM
DK-28,MACKINAW RIVER,CO RD 3800E BR 0.5 MI S OF ANCHOR,40.5583333,-88.5352778,STREAM
DK-29,MACKINAW RIVER,CO RD 3600E BR 3 MI E OF COLFAX,40.5541667,-88.5738889,STREAM
DK-30,MACKINAW RIVER,CO RD 1725E BR 3.5 MI E OF KAPPA,40.67861,-88.94222,STREAM
DKB-01,HICKORY GROVE DITCH,CO RD 1100N 4 MI NE MANITO,40.47883,-89.73479,STREAM
DKC-01,DILLON CREEK,2 MI SW DILLON,40.46511,-89.57053,STREAM
DKE-03,LITTLE MACKINAW RIVER,VALLEY RD 2 MI N HOPEDALE,40.4519444,-89.4161111,STREAM
DKF-11,PRAIRIE CREEK,4 MI SSE TREMONT TWP RD BR,40.46795,-89.44471,STREAM
DKF-12,PRAIRIE CREEK,RT 9 BR 1 MI E OF TREMONT,40.5236111,-89.4627778,STREAM
DKG-02,MUD CREEK,3 MI ENE TREMONT,40.5408333,-89.4252778,STREAM
DKI-02,ROCK CREEK,CO RD 1525 BR 3.5 MI SE OF GOODFIELD,40.585944,-89.245611,STREAM
DKJ-01,WALNUT CREEK,CO RD 1625E 3 MI NE GOODFIELD,40.64917,-89.22764,STREAM
DKK-01,PANTHER CREEK,4 MI NNE CONGERVILLE AT FORD,40.67084,-89.18041,STREAM
DKKB-01,WEST BRANCH PANTHER CREEK,CO RD 5 BR 2 MI NNE SECOR,40.77327,-89.11856,STREAM
DKKC-02,EAST BRANCH PANTHER CREEK,3 MI NW EL PASO,40.76996,-89.05948,STREAM
DKM-01,DENMAN CREEK,4.5 MI ENE CONGERVILLE,40.6407,-89.12521,STREAM
DKN-01,SIX MILE CREEK,CO RD 12 BR 0.75 MI W HUDSON,40.60627,-89.00264,STREAM
DKN-02,SIX MILE CREEK,CO RD 2000N 1.5 MI S OF HUDSON,40.576436,-88.977358,STREAM
DKP-02,MONEY CREEK,CO RD 2 MI NNE TOWANDA,40.5941,-88.88875,STREAM
DKR-01,BUCK CREEK,CO RD 2150E 1.25 MI NW CLARKSVILLE,40.6568,-88.8606,STREAM
DKS-01,TURKEY CREEK,"CO RD 8 BR, W EDGE OF LEXINGTON",40.643337,-88.796949,STREAM
DKT-01,CROOKED CREEK,1.25 MI SW PLEASANT HILL,40.60319,-88.76959,STREAM
DKU-01,PATTON CREEK,CO RD 2250N 0.2 MI E OF PLEASANT HILL,40.610336,-88.740108,STREAM
DKV-01,HENLINE CREEK,CO RD 2150N 4 MI NW COLFAX,40.59557,-88.68549,STREAM
DKZD-01,U-TRIB MACKINAW RIVER (BRAY CREEK),(BRAY CREEK) 1.5 MI SSW COLFAX,40.54432,-88.62672,STREAM
DKZE-01,U-TRIB MACKINAW RIVER (FROG ALLEY),(FROG ALLEY) 2 MI SSW ANCHOR,40.54379,-88.55123,STREAM
DL-06,KICKAPOO CREEK,"OFF N KICKAPOO CREEK RD, 0.9 MI N OF FARMINGTON RD INTERSECTION",40.71458,-89.65764,STREAM
DL-07,KICKAPOO CREEK,GRANGE HALL RD BR 2 MI N OF KICKAPOO,40.8191667,-89.7583333,STREAM
DLF-02,WEST FORK KICKAPOO CREEK,DOG TOWN LN BR 2.5 MI ESE OF ELMWOOD,40.7663889,-89.9091667,STREAM
DLG-01,JUBILEE CREEK,FORD SE PART JUBILEE COLLEGE STATE PARK,40.81861,-89.78208,STREAM
DM-01,SENACHWINE CREEK,1 MI NNW CHILLICOTHE,40.9402778,-89.5008333,STREAM
DM-02,SENACHWINE CREEK,SHEPARD RD 650E BR 3 MI NNW CHILLICOTHE,40.971202,-89.514744,STREAM
DN-01,CROW CREEK-WEST,CO RD 50E BR 6 MI NW OF HENRY,41.1496083,-89.456886,STREAM
DO-02,CROW CREEK-EAST,E TAX SCHOOL BR AT WILBERN,40.9491667,-89.3241667,STREAM
DP-01,SANDY CREEK,RT 89 BR 1 MI S MAGNOLIA,41.0916667,-89.2038889,STREAM
DQ-01,BIG BUREAU CREEK,5 MI S PRINCETON,41.30051,-89.46067,STREAM
DQ-02,BIG BUREAU CREEK,RT 26 BR 2 MI N PRINCETON,41.42293,-89.46925,STREAM
DQ-03,BIG BUREAU CREEK,RT 6 BR NEAR PRINCETON,41.36734,-89.49799,STREAM AMBIENT
DQ-04,BIG BUREAU CREEK,RT 29 BR 1 MI SW BUREAU,41.27873,-89.38334,STREAM
DQ-05,BIG BUREAU CREEK,4 MI N MALDEN,41.48644,-89.36876,STREAM
DQA-02,EAST BUREAU CREEK,ANGLING RD 1.4 MI NW OF MALDEN,41.4367,-89.3489,STREAM
DQD-01,WEST BUREAU CREEK,RT 34 BR AT WYANET,41.36495,-89.56835,STREAM AMBIENT INACTIVE
DQF-01,MASTERS FORK,3 MI N DOVER,41.48014,-89.42518,STREAM
DR-01,LITTLE VERMILION RIVER,RT 6 BR IN LASALLE,41.33326,-89.08116,STREAM AMBIENT INACTIVE
DR-03,LITTLE VERMILION RIVER,1 MI N LASALLE,41.36759,-89.08408,STREAM
DR-05,LITTLE VERMILION RIVER,1 MI NE TROY GROVE,41.48218,-89.06091,STREAM
DR-11,LITTLE VERMILION RIVER,2.25 MI UPS FROM ILL R,41.3477778,-89.085,STREAM
DRA-02,TOMAHAWK CREEK,MITCHAL NATURE PRESERVE 3 MI N OF LASALLE,41.377778,-89.0852778,STREAM
DS-06,VERMILION RIVER,CO RD 1400 N BR 0.5 MI E OF MCDOWELL,40.83055,-88.57514,STREAM AMBIENT
DS-07,VERMILION RIVER,E 12TH RD BR 3 MI NE OF LEONORE,41.20851,-88.93027,STREAM AMBIENT
DS-10,VERMILION RIVER,S EDGE STREATOR AT OLD RT 23,41.09362,-88.83486,STREAM
DS-12,VERMILION RIVER,MANVILLE RD BR 4 MI SSE OF STREATOR,41.04774,-88.80071,STREAM
DS-14,VERMILION RIVER,4 MI S OF CORNELL AT HUMISTON WOODS,40.93112,-88.71847,STREAM
DS-16,VERMILION RIVER,HOUDER CEMETERY 1.5 MI N MCDOWELL,40.8511111,-88.5852778,STREAM
DS-19,VERMILION RIVER,UPS OF MILL ST DAM AT PARK IN PONTIAC,40.8757972,-88.622575,STREAM
DS-20,VERMILION RIVER,CANOE LAUNCH AREA DNS OF NORTH W MAIN ST- IL RT 18 BR IN STREATOR,41.12175,-88.8421,STREAM
DSA-02,BAILEY CREEK,1 MI NE TONICA ON TONICA RD,41.2256,-89.05,STREAM
DSB-01,OTTER CREEK,TWP RD NW EDGE STREATOR,41.15298,-88.85486,STREAM
DSB-03,OTTER CREEK,0.5 MI N OF STREATOR AT MARILLA PARK,41.15147778,-88.82482778,STREAM
DSC-01,EAGLE CREEK,0.5 MI W STREATOR TWP RD,41.13525,-88.8597,STREAM
DSE-01,PRAIRIE CREEK,4 MI S STREATOR N-S TWP RD,41.05056,-88.8143,STREAM
DSF-01,LONG POINT CREEK,2.5 MI E LONG PT N-S TWP RD,41.00567,-88.8438,STREAM
DSFA-01,MOLE CREEK,4 MI W CORNELL RT 23 BR,40.9959944,-88.8124083,STREAM
DSFB-01,DIAMOND CREEK,"CO RD 2400N, 2.3 MI S OF LONG POINT",40.972589,-88.890025,STREAM
DSG-01,MUD CREEK,2.5 MI NW CORNELL TWP RD,41.02543,-88.75759,STREAM
DSH-02,SCATTERING POINT CREEK,2.5 MI SW CORNELL,40.97434,-88.7762,STREAM
DSH-03,SCATTERING POINT CREEK,3.8 MI NE OF FLANAGAN ON 2000N,40.91546389,-88.80453611,STREAM
DSHA-01,SHORT POINT CREEK,3.5 MI SW OF CORNELL ON CO RD 2350N,40.96686111,-88.79868611,STREAM
DSHB-01,MOREHOUSE CREEK,2.5 MI N GRAYMONT ON CO RD 800E,40.915,-88.7777778,STREAM
DSI-01,IDA CREEK,CO RD 2425N 1.3 MI SE OF CORNELL,40.97895,-88.70935,STREAM
DSJ-01,ROOKS CREEK,E-W TWP RD 6 MI NW PONTIAC,40.91598,-88.75051,STREAM
DSJ-02,ROOKS CREEK,4 MI SW OF PONTIAC ON 1350N DEAD END,40.82213333,-88.67918056,STREAM
DSJA-01,PIKE CREEK,1300N BR 4 MI SW PONTIAC,40.815,-88.715,STREAM
DSK-01,BAKER RUN,E-W TWP RD 2 MI S CORNELL,40.96027,-88.72587,STREAM
DSL-01,WOLF CREEK,N-S TWP RD 5 MI NW PONTIAC,40.93397,-88.70089,STREAM
DSLB-01,DEER CREEK,CO RD 2300N 1.8 MI NW OF CAYUGA,40.96127,-88.60548,STREAM
DSM-01,TURTLE CREEK,1600 N BR SW EDGE OF PONTIAC,40.8591667,-88.6508333,STREAM
DSP-03,SOUTH FORK VERMILION RIVER,CITY PARK SE EDGE FORREST,40.74088,-88.40766,STREAM
DSPA-01,INDIAN CREEK,1.5 MI SW FAIRBURY TWP RD,40.72279,-88.52989,STREAM
DSQ-03,NORTH FORK VERMILION RIVER,2.75 MI S CULLOM TWP RD,40.83781,-88.27971,STREAM
DSQA-01,FELKY SLOUGH,"CO RD 1700N, 4.0 MI SW OF SAUNEMIN",40.875928,-88.479144,STREAM
DSQB-01,FIVEMILE CREEK,3 MI SW SAUNEMIN TWP RD,40.85325,-88.43219,STREAM
DSQC-01,KELLY CREEK,N-S TWP RD 4 MI SE CULLOM,40.83287,-88.22296,STREAM
DST-01,MURRAY DITCH,3 MI SE STREATOR TWP RD,41.06902,-88.79508,STREAM
DT-06,FOX RIVER,RT 62 BR ALGONQUIN RD,42.1659,-88.28983,STREAM AMBIENT
DT-13,FOX RIVER,RT 65 BR AURORA,41.75919,-88.3144,STREAM
DT-22,FOX RIVER,RT 176 BR 5 MI ENE CRYSTAL LAKE,42.27954,-88.22692,STREAM AMBIENT
DT-23,FOX RIVER,RT 120 BR MCHENRY,42.34408,-88.2607,STREAM
DT-32,FOX RIVER,0.6 MI NW OF MILLBROOK,41.60666,-88.56199,STREAM
DT-35,FOX RIVER,RT 173 BR 4 MI E ANTIOCH,42.47899,-88.1785,STREAM AMBIENT
DT-36,FOX RIVER,AT WEDRON,41.4335,-88.77116,STREAM
DT-38,FOX RIVER,MILL STREET BR IN MONTGOMERY,41.72945,-88.33883,STREAM AMBIENT
DT-51,FOX RIVER,MCHENRY DAM SE MCHENRY SHORES,42.31038,-88.25104,STREAM
DT-83,FOX RIVER,"IN SHERIDAN, N OF N 41ST ST",41.5297222,-88.6952778,STREAM
DTA-08,INDIAN CREEK,1 MI N HARDING AT CO RD 4150 BR,41.53559,-88.85206,STREAM
DTA-09,INDIAN CREEK,SUYDAM RD 1.4 MI E OF ROLLO,41.6707,-88.8599,STREAM
DTAB-01,LITTLE INDIAN CREEK,3 MI NNW OF LELAND,41.66034,-88.81579,STREAM
DTAB-02,LITTLE INDIAN CREEK,3.5 MI NW SHERIDAN RD 4275,41.55368,-88.75054,STREAM
DTB-01,SOMONAUK CREEK,"CR 4200 N BR, 1.25 MI E OF CR 2351 E AND 1 MI N OF SHERIDAN",41.5436,-88.68675,STREAM AMBIENT INACTIVE
DTB-02,SOMONAUK CREEK,1.5 MI E SOMONAUK,41.63952,-88.65258,STREAM
DTB-03,SOMONAUK CREEK,4 MI W AND 4 MI S HINKLEY,41.7336111,-88.7005556,STREAM
DTB-04,SOMONAUK CREEK,SOMONAUK RD 4.0 MI NNW OF SANDWICH,41.7047,-88.6522,STREAM
DTB-05,SOMONAUK CREEK,N 4500 BR 3 MI S OF SOMONAUK,41.588,-88.6733,STREAM
DTB-06,SOMONAUK CREEK,0.4 MI E OF SOMANAUK RD AND 2.9 MI NNW OF SANDWICH AT LARSONS BERRY FARM,41.6974,-88.6446,STREAM
DTC-03,BIG ROCK CREEK,2.5 MI NE LITTLE ROCK,41.74376,-88.54088,STREAM
DTC-05,BIG ROCK CREEK,MAIN ST E EDGE OF PLANO,41.66644,-88.52401,STREAM
DTC-07,BIG ROCK CREEK,JERICHO RD 5 MI NNE PLANO,41.73336,-88.50774,STREAM
DTC-10,BIG ROCK CREEK,HALE RD 0.7 MI SSE OF PLANO,41.6518,-88.5287,STREAM
DTC-11,BIG ROCK CREEK,GALENA RD 4.2 MI NNE OF PLANO,41.7137,-88.4941,STREAM
DTCA-01,LITTLE ROCK CREEK,S PLANO,41.63568,-88.54116,STREAM
DTCA-08,LITTLE ROCK CREEK,GALENA RD 0.5 MI W LITTLE ROCK,41.7167,-88.5807,STREAM
DTCB-01,WELCH CREEK,CAMP DEAN RD 2.2 MI ESE OF BIG ROCK IN CAMP DEAN,41.746,-88.5127,STREAM
DTCB-02,WELCH CREEK,SCOTT RD 2.1 MI NNE OF BIG ROCK,41.7931,-88.5401,STREAM
DTCB-03,WELCH CREEK,LASHER RD 3 MI N OF BIG ROCK,41.80754,-88.54649,STREAM
DTCC-01,WEST BRANCH BIG ROCK CREEK,COUNTY LINE RD 2.9 MI WNW OF BIG ROCK,41.7746,-88.6021,STREAM
DTCC-02,WEST BRANCH BIG ROCK CREEK,PHILLIPS RD 1.3 MI N OF HINCKLEY,41.7878,-88.6387,STREAM
DTCD-01,EAST BRANCH BIG ROCK CREEK,3 MI W KANEVILLE,41.8216667,-88.5847222,STREAM
DTD-02,BLACKBERRY CREEK,RT 47 BR (BRIDGE ST) N EDGE OF YORKVILLE,41.67161,-88.44269,STREAM AMBIENT
DTD-03,BLACKBERRY CREEK,4 MI N SUGAR GROVE,41.78001,-88.43976,STREAM
DTE-01,WAUBANSEE CREEK,RT 25 OSWEGO,41.68597,-88.34942,STREAM
DTE-03,WAUBANSEE CREEK,"E OF OSWEGO, NORTH OF RT 34",41.6944444,-88.325,STREAM
DTE-04,WAUBANSEE CREEK,0 MI E OSWEGO ON PFUND DRIVE,41.68863056,-88.33955833,STREAM
DTE-05,WAUBANSEE CREEK,0 MI E OSWEGO ON KENDALL POINT ROAD,41.71648333,-88.30092778,STREAM
DTE-06,WAUBANSEE CREEK,0 MI SE AURORA ON WATERFORD DRIVE,41.72815,-88.28071667,STREAM
DTF-02,FERSON CREEK,2 MI NW ST CHARLES,41.93328,-88.3411,STREAM
DTFA-02,OTTER CREEK,"2.8 MI SW SOUTH ELGIN, 200 FT S MCDONALD RD",41.985,-88.3558333,STREAM
DTG-01,POPLAR CREEK,S EDGE ELGIN,42.01437,-88.26931,STREAM
DTG-05,POPLAR CREEK,"JAY ST EXTENDED, 0.2 MI N OF RT 20 IN ELGIN",42.02258,-88.25795,STREAM
DTG-06,POPLAR CREEK,RT 19 BR 0.2 MI S RT 19 IN ELGIN AT ELGIN HS,42.0282,-88.2444,STREAM
DTG-07,POPLAR CREEK,RT 58 BR 1 MI W OF RT 59 ELGIN AND 0.2 MI DNS RT 58,42.0435,-88.2142,STREAM
DTG-08,POPLAR CREEK,RT 58 BR 1.1 MI W OF RT 59 ELGIN AND 0.2 MI UPS RT 58,42.04626,-88.21293,STREAM
DTG-09,POPLAR CREEK,0.3 MI ESE RT 59 AND RT 58 INTERSECTION ELGIN,42.04436,-88.18821,STREAM
DTK-01,NIPPERSINK CREEK,RT 12 CO LN NW FOX LAKE,42.41523,-88.19985,STREAM
DTK-02,NIPPERSINK CREEK,0.25 MI DNS WONDER LAKE,42.41445,-88.34274,STREAM
DTK-04,NIPPERSINK CREEK,"WINN RD BR, 200 FT S OF MAIN ST AND 0.6 MI W OF SPRING GROVE AT FISH HATCHERY",42.44361,-88.2473,STREAM AMBIENT
DTK-06,NIPPERSINK CREEK,6 MI N OF WOODSTOCK,42.39957,-88.43074,STREAM
DTK-07,NIPPERSINK CREEK,"OLD RICHMOND ROAD 2.7 MI NNE RINGWOOD IN GLACIAL PARK, MCHENRY CO CONS DIST",42.4307,-88.2925,STREAM
DTK-08,NIPPERSINK CREEK,"RT 31 BR 2.6 MI N OF RINGWOOD IN GLACIAL PARK, MCHENRY CO CONS DIST",42.4282,-88.3018,STREAM
DTK-09,NIPPERSINK CREEK,UPS GREENWOOD RD SE OF GREENWOOD,42.38767,-88.390839,STREAM
DTKA-04,NORTH BRANCH,0.5 MI SE RICHMOND,42.46493,-88.29991,STREAM
DTKA-05,NORTH BRANCH,1 MI N OF RICHMOND IN MCHENRY CO CONS DIST PROPERTY,42.4892,-88.3235,STREAM
DTKAA-03,NORTH CREEK,RT 173 BR 1 MI E RICHMOND,42.4797222,-88.2897222,STREAM
DTKA-R-C4,NORTH BRANCH,SOLON RD BR 2.2 MI S OF RICHMOND AND 4.5 MI DNS RICHMOND WWTP,42.4399,-88.296,STREAM FACILITY
DTKBA-01,U-TRIB SOUTH BRANCH NIPPERSINK CREEK,RT 47 BR 4.4 MI S HEBRON,42.3882,-88.4425,STREAM
DTKBA-02,U-TRIB SOUTH BRANCH NIPPERSINK CREEK,CHARLES ROAD 3.7 MI NNW OF WOODSTOCK,42.3646,-88.4725,STREAM
DTKB-WN-C4,SOUTH BRANCH NIPPERSINK CREEK,CHARLES RD (CR 1) BR 1.6 MI NW OF WOODSTOCK AND 1.7 MI DNS WOODSTOCK N WWTP,42.3609,-88.4553,STREAM FACILITY
DTZB-02,BUCK CREEK,1.5 MI W OF WEDRON,41.43661,-88.80376,STREAM
DTZI-01,ROB ROY CREEK,RIVER RD SE PLANO,41.63672,-88.52977,STREAM
DTZI-02,ROB ROY CREEK,RT 34 BR 2.3 MI NW OF YORKVILLE,41.6612,-88.4819,STREAM
DTZI-03,ROB ROY CREEK,CORNEILS RD 3.3 MI NNW YORKVILLE,41.69,-88.4639,STREAM
DTZI-04,ROB ROY CREEK,GALENA RD 4.3 MI N OF YORKVILLE,41.7051,-88.4467,STREAM
DTZP-03,TYLER CREEK,500 YDS UPS RT 31 BR,42.0624611,-88.2980167,STREAM
DTZP-04,TYLER CREEK,RANDALL RD 1 MI W ELGIN,42.05688,-88.33801,STREAM
DTZP-05,TYLER CREEK,0.5 MI W ELGIN ON HOXIE ROAD BRIDGE,42.043825,-88.31685,STREAM
DTZP-06,TYLER CREEK,1.6 MI NW ELGIN ON TIMBER RIDGE ROAD,42.07107222,-88.35734167,STREAM
DTZP-07,TYLER CREEK,3.3 MI NW ELGIN ON MCCORNACK ROAD,42.08948889,-88.37988889,STREAM
DTZS-01,FLINT CREEK,KELSEY RD LK BARRINGTON,42.2111,-88.17345,STREAM
DTZS-02,FLINT CREEK,NEAR BARRINGTON HILLS,42.1540222,-88.1520083,STREAM
DTZT-01,BOONE CREEK,RT 120&31 BR MCHENRY,42.34569,-88.26884,STREAM
DTZT-02,BOONE CREEK,3 MI SW OF MCHENRY,42.32066,-88.31258,STREAM
DU-01,NETTLE CREEK,GEBHARD WOODS STATE PK,41.3575,-88.4388889,STREAM
DU-02,NETTLE CREEK,RT 6 BR 2.8 MI W OF MORRIS,41.370556,-88.469722,STREAM
DU-03,NETTLE CREEK,GORE RD 3 MI NW OF MORRIS,41.3854,-88.4677,STREAM
DU-04,NETTLE CREEK,PIONEER RD 5 MI NW OF MORRIS,41.4022,-88.4995,STREAM
DU-05,NETTLE CREEK,UPS PIONEER RD 5.3 MI NW OF MORRIS,41.4022,-88.5058,STREAM
DU-06,NETTLE CREEK,WILLIAMS RD 6.7 MI NW OF MORRIS AT HOLDERMAN AND HOGE CEMETERY,41.4047,-88.5369,STREAM
DU-07,NETTLE CREEK,"S OF SCOTT SCHOOL RD AND NETTLE SCHOOL RD INTERSECTION, 4.5 MI NW OF MORRIS",41.4108,-88.5101,STREAM
DUA-01,EAST FORK NETTLE CREEK,NORTHERN AVE BR,41.3638889,-88.4297222,STREAM
DUA-02,EAST FORK NETTLE CREEK,LISBON RD 2.8 MI N OF MORRIS AT MIDDLE RD EXTENDED,41.39627,-88.44187,STREAM
DUB-01,WEST FORK NETTLE CREEK,HOGE RD 6.8 MI NW OF MORRIS,41.4139,-88.5282,STREAM
DV-02,MAZON RIVER,I-55 BR 2 MI NNE GARDNER,41.21521,-88.29083,STREAM
DV-04,MAZON RIVER,RT 113 BR 4 MI W COAL CITY,41.28619,-88.36025,STREAM AMBIENT
DV-08,MAZON RIVER,SPRING RD 4.0 MI W OF COAL CITY,41.271667,-88.359722,STREAM
DVD-01,JOHNNY RUN,2.5 MI NE MAZON SPRING RD,41.27081,-88.39294,STREAM
DVE-02,WEST FORK MAZON RIVER,6 MI N DWIGHT GARDNER RD,41.18258,-88.43491,STREAM
DVE-03,WEST FORK MAZON RIVER,2.5 MI ESE MAZON BRACEVILLE RD,41.22777,-88.37411,STREAM
DVF-01,EAST FORK MAZON RIVER,0.1 MI SO S WILMINGTON GOODFARM RD,41.15744,-88.27273,STREAM
DW-01,AUXSABLE CREEK,RT 6 BR 6 MI NE MORRIS,41.41704,-88.34768,STREAM AMBIENT
DW-03,AUXSABLE CREEK,2.2 MI NW MINOOKA,41.48329,-88.3004,STREAM
DW-07,AUXSABLE CREEK,"9.5 MI W SHOREWOOD, N OF RT 52",41.5122222,-88.3108333,STREAM
DW-08,AUXSABLE CREEK,"SE SEWARD, SOUTH OF RT 52 AT BELL RD",41.4977778,-88.2994444,STREAM
DW-99,AUXSABLE CREEK,SE MORRIS US CONFL ILL R,41.39652,-88.33047,STREAM
DZA-02,OTTER CREEK,FIELDON ROSEDALE RD BR 5 MI W 2 MI N OTTERVILLE,39.07298,-90.49277,STREAM
DZA-03,OTTER CREEK,DABBS NORTH RD BR 2.5 MI W AND 1 MI N OTTERVILLE,39.06181,-90.45291,STREAM
DZAF-01,SOUTH FORK OTTER CREEK,LIBERTY RIDGE RD 2 MI W OTTERVILLE,39.05029,-90.44141,STREAM
DZC-01,BLUE CREEK,CO RD 3850E BR 3 MI NNW OF FLORENCE,39.66336,-90.64284,STREAM
DZC-07,BLUE CREEK,CO RD 3650E BR 2 MI N OF DETROIT,39.6453,-90.679547,STREAM
DZG-02,QUIVER CREEK,CO RD 2280 E BR 0.25 MI S TOPEKA,40.32328,-89.92808,STREAM
DZGB-01,MAIN DITCH,CO RD 3300 E BR 5.5 MI ESE OF FOREST CITY,40.33763,-89.733867,STREAM
DZGBB-01,RED OAK DITCH,CO RD 3100E BR 4 MI NE OF EASTON,40.2935556,-89.7720056,STREAM
DZGBC-01,ALLENS GROVE DITCH,CO RD 1800N BR 5.5 MI SW OF FOREST CITY,40.3190444,-89.7483278,STREAM
DZH-01,COPPERAS CREEK,E EDGE BANNER,40.51667,-89.90458,STREAM
DZIA-02,WEST BRANCH LAMARSH CREEK,2.7 MI N OF MAPLETON OFF MCCULLOUGH RD AT VICTORY ACRES MINISTRIES,40.60621,-89.73509,STREAM
DZIAA-01,LARGENT CREEK,RIKENA RD BR 3.5 MI W OF BARTONVILLE,40.6459389,-89.7481194,STREAM
DZP-01,SPRING CREEK,AT SPRING VALLEY DNS RR BR,41.3186,-89.19609,STREAM
DZS-01,COVEL CREEK,RT 23 S OTTAWA,41.2938889,-88.8361111,STREAM
DZX-01,WAUPECAN CREEK,3.3 MI S OF MORRIS ON DWIGHT RD,41.297778,-88.429167,STREAM
DZZJ-01,WALNUT CREEK,CANNON RD BR 2.5 MI NW WINCHESTER,39.651613,-90.495738,STREAM
DZZJA-01,PLUM CREEK,MCGLAUGHLIN RD BR 5 MI S BLUFFS,39.674241,-90.542269,STREAM
DZZP-02,FARM CREEK,1 MI ESE SUNNYLAND,40.68612,-89.47331,STREAM
DZZP-04,FARM CREEK,"REESER RD BR AT FARMDALE, EAST PEORIA",40.6680556,-89.5202778,STREAM
E-05,SANGAMON RIVER,"RM 117.8, CR 600 E BR AT LINCOLN TRAIL STATE PARK, 0.75 MI N OF MT AUBURN RD AND 5 MI SE OF NIANTIC",39.79687,-89.10468,STREAM AMBIENT INACTIVE
E-06,SANGAMON RIVER,"RM 130.8, LAKE DECATUR WATER INTAKE (LINCOLN PARK DR) AT LAKE DECATUR DAM",39.82679,-88.95571,STREAM AMBIENT
E-16,SANGAMON RIVER,"ROBY RD BR, 0.25 MI N OF CR 2675 N AND 4.5 MI S OF MECHANICSBURG AT ROBY, RM 99.6",39.74253,-89.40149,STREAM AMBIENT INACTIVE
E-18,SANGAMON RIVER,"BRIDGE ST BR AT COUNTY FARM RD (1550N), 0.4 MI W OF MONTICELLO, RM 162.6",40.03093,-88.58843,STREAM AMBIENT
E-19,SANGAMON RIVER,"US 150 (OAK ST) BR, 100 YDS E OF SR 47 ON E EDGE OF MAHOMET, RM 186.1",40.19161,-88.40002,STREAM
E-24,SANGAMON RIVER,"SR 123 (SANGAMON AVE) BR ON E EDGE OF PETERSBURG, RM 47.1",40.01291,-89.83809,STREAM AMBIENT INACTIVE
E-25,SANGAMON RIVER,"SR 97 BR, 1.8 MI NW OF OAKFORD AND 2.4 SE OF KILBOURNE, RM 27.3",40.12389,-89.98453,STREAM AMBIENT
E-26,SANGAMON RIVER,"OLD US 36, 0.6 MI NE OF CAMP BUTLER RD AND 0.5 MI SW OF RIVERTON, RM 84.7",39.83704,-89.54592,STREAM AMBIENT
E-29,SANGAMON RIVER,"US 136 BR AT CR 700 E, 1 MI E OF FISHER, RM 201.5",40.3109,-88.32263,STREAM AMBIENT
E-33,SANGAMON RIVER,"CR 4100 E BR, 0.7 MI S OF HUTH HILL RD AND 2.5 MI SE OF SAYBROOK, RM 222.7",40.41032,-88.47901,STREAM
ECB-01,LONG BRANCH,CO RD 320N BR 4 MI SW OF OAKFORD,40.1084917,-90.0716167,STREAM
EE-04,PANTHER CREEK,CREEK RD 0.6 MI SE OF REED RD AND 3 MI SW OF CHANDLERVILLE,40.0178,-90.1126,STREAM
EEA-02,COX CREEK,"CREEK RD BR AT REED RD, 2.5 MI SE OF CHANDLERVILLE IN JIM EDGAR STATE FISH AND WILDLIFE AREA",40.0236111,-90.1158333,STREAM
EG-02,CLARY CREEK,5 MI S OAKFORD,40.025,-89.95984,STREAM
EH-02,CRANE CREEK,"CR 1200 N BR, 0.5 MI E OF CR 2500 E AND 1.5 MI W OF EASTON",40.23144,-89.87637,STREAM
EHF-01,HARDIN DITCH,2 MI NNW OF EASTON RD 1400N,40.2604778,-89.8576806,STREAM
EHG-01,FURRER DITCH,2.5 MI NE OF EASTON RD 2950E,40.2574694,-89.8008417,STREAM
EHH-01,CENTRAL DITCH,2 MI NE OF EASTON RD 2800E,40.2609583,-89.8286389,STREAM
EHI-01,HERGET DRAINAGE DITCH,7 MI E OF KILBOURNE ON CO RD 600N,40.1497667,-89.8794667,STREAM
EHI-02,HERGET DRAINAGE DITCH,6 MI E OF KILBOURNE ON CO RD 2450E,40.1547028,-89.8939167,STREAM
EI-02,SALT CREEK,"SR 29 BR, 0.8 MI S OF MAXWELL RD (580N) AND 3.4 MI N OF GREENVIEW, RM 4.9",40.1336,-89.73538,STREAM AMBIENT
EI-06,SALT CREEK,"CR 500 E BR, 0.4 MI SE OF SR 54 AND 2 MI NE OF KENNEY, RM 63.5",40.1148,-89.04897,STREAM AMBIENT INACTIVE
EI-07,SALT CREEK,"SR 54 BR, 150 YDS SW OF CR 1600 N AND 3 MI NE OF FARMER CITY, RM 102.7",40.28083,-88.60391,STREAM
EI-11,SALT CREEK,RT 66 BR 1 MI S LINCOLN,40.13075,-89.3888,STREAM
EI-12,SALT CREEK,CO RD 825E BR 4 MI SSW OF CLINTON,40.0974444,-88.9891944,STREAM
EI-13,SALT CREEK,RT 10 BR 3 MI ESE CLINTON,40.1344444,-88.8848333,STREAM
EI-17,SALT CREEK,"CR 250 E BR, 0.3 MI S OF CR 1300 N AND 2 MI E OF MIDDLETOWN, RM 17.4",40.10223,-89.55083,STREAM
EID-01,SUGAR CREEK,"SR 10 BR, 0.8 MI W OF CR 500 E AND 3.3 MI E OF NEW HOLLAND, RM 7.2",40.17581,-89.51877,STREAM
EID-07,SUGAR CREEK,2.5 MI SE OF NEW HOLLAND,40.16032,-89.55138,STREAM
EID-15,SUGAR CREEK,"CR 2550 N BR, 300 YDS W OF CR 1450 E AND 2 MI ESE OF UNION, RM 23.1",40.28384,-89.33222,STREAM
EID-16,SUGAR CREEK,"CR 1000 N BR, 200 YDS W OF CR 820 E AND 4 MI SW OF BLOOMINGTON, RM 44.2",40.42917,-89.08132,STREAM
EIDA-01,PRAIRIE CREEK,"CR 800 N BR, 0.8 MI E OF CR 3900 E AND 1.5 MI SW OF NEW HOLLAND",40.17924,-89.60721,STREAM
EIDB-02,WEST FORK SUGAR CREEK,"ARMINGTON RD (100N) BR, 0.4 MI E OF HORNER RD AND 1.25 MI W OF ARMINGTON",40.33883,-89.33743,STREAM
EIDC-01,TIMBER CREEK,"CR 530 N BR, 0.8 MI E OF CR 600 E AND 1.25 MI WSW OF FUNKS GROVE",40.36052,-89.13703,STREAM
EIDE-01,MIDDLE FORK SUGAR CREEK,"CR 150 E BR, 0.2 MI N OF CR 800 N AND 2.5 MI SSW OF STANFORD",40.40121,-89.23659,STREAM
EIE-03,KICKAPOO CREEK,RT 136 DNS BR 2 MI W HEYWORTH,40.3116278,-89.0143889,STREAM
EIE-08,KICKAPOO CREEK,"UPS OF US 136 BR, 1 MI E OF CR 1200 E AND 1.75 MI W OF HEYWORTH, RM 35.9",40.3121,-89.01427,STREAM
EIE-09,KICKAPOO CREEK,4 MI SW HEYWORTH,40.28934,-89.05891,STREAM
EIE-10,KICKAPOO CREEK,"OLD SR 121 BR, 0.3 MI N OF OLD US BUS 66 ON NW EDGE OF LINCOLN, RM 6.1",40.1683,-89.38681,STREAM
EIE-14,KICKAPOO CREEK,2.2 MI NNE OF HEYWORTH,40.3441667,-88.9558333,STREAM
EIE-17,KICKAPOO CREEK,N 2000 E RD BR NW EDGE OF DOWNS,40.39979722,-88.8819,STREAM
EIE-19,KICKAPOO CREEK,EAST EDGE OF GROVE DEVELOPMENT DNS OF CO RD 2100E,40.46745,-88.86438,STREAM
EIE-20,KICKAPOO CREEK,CO RD 1300N 3 MI E BLOOMINGTON AIRPORT,40.47243,-88.85178,STREAM
EIE-21,KICKAPOO CREEK,US 150 BR N EDGE OF DOWNS,40.4011,-88.8725,STREAM
EIE-22,KICKAPOO CREEK,DNS IRELAND RD BR 3.2 MI SE OF BLOOMINGTON,40.45807,-88.87793,STREAM
EIEE-01,LONG POINT CREEK,"CR 700 E BR, 150 YDS S OF CR 1500 N AND 3.5 MI SW OF HEYWORTH",40.2667,-89.0152,STREAM
EIEI-01,LITTLE KICKAPOO CREEK-NORTH,2 MI N OF HEYWORTH,40.3451,-88.9783333,STREAM
EIEI-02,LITTLE KICKAPOO CREEK-NORTH,"CR 700 N BR, 0.25 MI W OF CR 1675 E AND 5.5 MI SE OF BLOOMINGTON",40.3858333,-88.9516667,STREAM
EIEI-03,LITTLE KICKAPOO CREEK-NORTH,"CR 550 N BR, 0.3 MI E OF CR 1550 E AND 3.5 MI NNE OF HEYWORTH",40.36472222,-88.96388889,STREAM
EIEK-01,LITTLE KICKAPO CREEK-EAST,CO RD 2000E 1 MI SW OF DOWNS,40.383667,-88.881856,STREAM
EIF-01,DEER CREEK,3.5 MI ESE OF LINCOLN,40.13017,-89.29169,STREAM
EIG-01,LAKE FORK,"CR 1100 E BR, 0.2 MI N OF SR 54 AND 1.3 MI NE OF CORNLAND",39.95119,-89.38353,STREAM AMBIENT
EIGB-01,NORTH FORK LAKE FORK,3 MI W OF LATHAM,39.96969,-89.219,STREAM
EIH-01,TEN MILE CREEK,"CR 500 E BR, 0.6 MI N OF SR 54 AND 3 MI NE OF KENNEY",40.1295,-89.0476,STREAM
EII-01,COON CREEK,"CR 500 N BR, 1.8 MI W OF US 51 AND 2.5 MI SW OF CLINTON",40.12427,-88.99888,STREAM
EIJ-02,NORTH FORK SALT CREEK,"CR 1500 N BR, 0.3 MI W OF CR 1925 E AND 5.5 MI N OF DEWITT",40.267922,-88.784586,STREAM
EIZA-02,U-TRIB SALT CREEK,4 MI NW BROADWELL UPS 1075N RD AND CONFL WITH WEST BRANCH,40.074572,-89.515122,STREAM
EIZA-03,U-TRIB SALT CREEK,4 MI NW BROADWELL UPS 1075N RD AND CONFL WITH EAST BRANCH,40.072589,-89.512385,STREAM
EIZAA-01,WEST BRANCH U-TRIB SALT CREEK,4 MI NW BROADWELL UPS 1075N RD AND CONFL WITH U-TRIB,40.075108,-89.516681,STREAM
EIZAB-01,EAST BRANCH U-TRIB SALT CREEK,4 MI NW BROADWELL UPS 1075N RD AND CONFL WITH U-TRIB,40.072881,-89.511827,STREAM
EK-03,RICHLAND CREEK,"TAYLOR HOMESTEAD RD BR, 1.5 MI SW OF SALISBURY",39.8779,-89.8264,STREAM
EL-01,SPRING CREEK-WEST,"BRUNS LANE BR, 0.3 MI S OF VETERANS PKWY ON NW EDGE OF SPRINGFIELD",39.821,-89.68702,STREAM AMBIENT
EL-03,SPRING CREEK-WEST,"BOMKE RD BR, 2 MI NW OF RIDDLE HILL",39.7944444,-89.8008333,STREAM
EM-01,FANCY CREEK,"SHERMAN RD BR AT WALDROP PARK, 1 MI E OF BUS 55 ON NE EDGE OF SHERMAN",39.8956,-89.585778,STREAM
EO-04,SOUTH FORK SANGAMON RIVER,2 MI W EDINBURG,39.65479,-89.43389,STREAM
EO-12,SOUTH FORK SANGAMON RIVER,MECHANICSBURG RD BR 5 MI N ROCHESTER,39.802,-89.5412,STREAM
EO-15,SOUTH FORK SANGAMON RIVER,"CO RD 1500N BR 2 MI SE OF KINCAID AT IDNR PROPERTY, RM 41.9",39.5678,-89.3791,STREAM
EOA-04,SUGAR CREEK,"BAB RD BR, 0.25 MI S OF HUDSON RD AND 2 MI NE OF AUBURN",39.60746,-89.71243,STREAM
EOAA-01,LICK CREEK,"REYHAN RD BR, 0.5 MI W OF FREDERICK RD AND 2 MI E OF LOAMI",39.67838,-89.80745,STREAM
EOC-02,HORSE CREEK,"BLACK DIAMOND RD BR, 1 MI N OF DIVERNON RD AND 0.5 MI S OF PAWNEE",39.58235,-89.57187,STREAM
EOCA-01,BRUSH CREEK,"PAWNEE RD BR, 0.75 MI S OF NEW CITY RD AND 4.5 MI NNW OF PAWNEE",39.64868,-89.60255,STREAM
EOCA-05,BRUSH CREEK,4 MI N OF PAWNEE,39.66035,-89.59096,STREAM
EOF-06,BEAR CREEK,"CR 1100 N BR, 0.4 MI E OF CR 700 E AND 3.5 MI NNE OF PALMER",39.5097,-89.3968,STREAM
EOH-01,FLAT BRANCH,"CR 1400 N (LINCOLN TRAIL) BR, 0.25 MI W OF LAKESIDE DR AND 1 MI E OF TAYLORVILLE",39.55256,-89.25351,STREAM AMBIENT
EOH-02,FLAT BRANCH,"CR 2300 E BR, 0.25 MI S OF CR 1800 N AND 4.5 MI SW OF MOWEAQUA",39.60738,-89.10043,STREAM
EQ-01,MOSQUITO CREEK,"CR 1550 E BR, 2 MI N OF CR 2930 N AND 2.5 MI NE OF MT AUBURN",39.79938,-89.26958,STREAM
ERA-01,LONG POINT SLOUGH,1.5 MI S ILLIOPOLIS,39.82973,-89.23627,STREAM
ES-03,STEVENS CREEK,SUMMIT ST NW EDGE DECATUR,39.87234,-88.99064,STREAM
ES-06,STEVENS CREEK,1 MI NW OF FORSYTH,39.9485305,-88.9765027,STREAM
ES-13,STEVENS CREEK,"IN FAIRVIEW PARK NEAR PARK RD, 400 FT UPS OF W MAIN ST ON SW EDGE OF DECATUR",39.84418,-89.00032,STREAM
EV-04,FRIENDS CREEK,"CEMETARY RD (2200E) BR, 1 MI N OF SR 48 AND 1.75 MI NE OF ARGENTA",40.0056,-88.80346,STREAM
EW-01,CAMP CREEK,"CR 1225 E BR, 0.25 MI N OF CR 1800 N AND 3 MI NE OF MONTICELLO",40.05824,-88.52035,STREAM
EX-01,GOOSE CREEK,"CR 1950 N BR, 200 YDS E OF DELAND-MONTICELLO RD AND 3.5 MI SE OF DELAND",40.07613,-88.62072,STREAM
EY-01,DRUMMER CREEK,3.25 MI S GIBSON CITY ON CO RD 075N,40.40961,-88.37991,STREAM
EZM-07,BUCKHART CREEK,"EDINBURGH RD (800E) BR, 0.9 MI S OF CR 2675 N AND 1.2 MI SE OF ROBY",39.725503,-89.387619,STREAM
EZS-01,WILDCAT CREEK,3 MI W MONTICELLO,40.0177194,-88.6348639,STREAM
EZT-01,MADDEN CREEK,2 MI NE LODGE,40.13432,-88.53076,STREAM
EZU-01,BIG DITCH,"CR 2500 N BR, 0.25 MI E OF CR 500 E AND 3.5 MI NE OF MAHOMET",40.23782,-88.3613,STREAM
EZW-01,LONETREE CREEK,CO RD 300E 1.5 MI E OF FOOSLAND,40.36082,-88.403897,STREAM
EZZH-02,DICKERSON SLOUGH,"CR 050 N BR, 0.5 MI E OF CR 600 AND 5 MI SE OF GIBSON CITY",40.405867,-88.338522,STREAM
EZZN-01,ROCK CREEK,"BOY SCOUT TRAIL RD BR, 3 MI SW ATHENS",39.9316,-89.8025,STREAM
F-01,KANKAKEE RIVER,I-55 BR 3 MI NW WILMINGTON,41.35007,-88.19178,STREAM AMBIENT INACTIVE
F-02,KANKAKEE RIVER,RT 1 BR AT MOMENCE,41.16016,-87.6626,STREAM AMBIENT
F-03,KANKAKEE RIVER,ILL-IND STATE LINE,41.16603,-87.52657,STREAM
F-04,KANKAKEE RIVER,KANKAKEE-WILL CO LINE BR,41.20818,-88.01177,STREAM
F-06,KANKAKEE RIVER,RT 17 BR 4 MI E KANKAKEE,41.12004,-87.75077,STREAM
F-07,KANKAKEE RIVER,RT 113 BR 0.5 MI SE WILEY CREEK,41.15839,-87.93784,STREAM
F-08,KANKAKEE RIVER,NEAR CUSTER PARK,41.24754,-88.12934,STREAM
F-09,KANKAKEE RIVER,NEAR AROMA PARK,41.08254,-87.82232,STREAM
F-11,KANKAKEE RIVER,DNS OF WILMINGTON DAM,41.300633,-88.1514,STREAM
F-12,KANKAKEE RIVER,100 YDS DNS KANKAKEE DAM,41.11336,-87.86835,STREAM
F-13,KANKAKEE RIVER,NORTH CHANNEL ALTORF-LANGHAM ISLAND IN KANKAKEE RIVER STATE PARK,41.1880556,-87.9633333,STREAM
F-14,KANKAKEE RIVER,1.7 MI UPS DES PLAINES RIVER,41.3666694,-88.2492667,STREAM
F-15,KANKAKEE RIVER,4.5 MI E(UPS)OF MOMENCE AND 0.5 MI N OF RT 114 AT DNR PROPERTY,41.1606,-87.592428,STREAM
F-16,KANKAKEE RIVER,RT 53 BR WILMINGTON,41.30547,-88.15133,STREAM AMBIENT
FA-01,PRAIRIE CREEK,RIVER ROAD BR 3 MI NW OF WILMINGTON,41.3424,-88.18246,STREAM
FA-02,PRAIRIE CREEK,3 MI N  WILMINGTON ON DOYLE ROAD,41.36226667,-88.16621944,STREAM
FA-03,PRAIRIE CREEK,CO RD 2W BR 3 MI S  ELWOOD,41.35979444,-88.11219444,STREAM
FA-04,PRAIRIE CREEK,ROWELL RD BR 3 MI SE ELWOOD,41.37643056,-88.05785278,STREAM
FA-06,PRAIRIE CREEK,CHERRY HILL RD BR 4.5 MI E ELWOOD,41.3981,-88.0197,STREAM
FA-07,PRAIRIE CREEK,KANKAKEE ST 2.5 MI ESE OF MANHATTAN,41.4099,-87.9413,STREAM
FB-01,FORKED CREEK,AT LEASURE RD RITCHIE,41.25524,-88.10557,STREAM
FB-02,FORKED CREEK,10 MI ESE WILMINGTON ON BALLOU RD,41.27815,-88.01693,STREAM
FB-03,FORKED CREEK,WASHINGTON ST EXTENDED IN WILMINGTON 0.4 MI UPS OF KANKAKEE R CONFLUENCE,41.3118,-88.144,STREAM
FB-04,FORKED CREEK,KAHLER RD 1.2 MI SE OF WILMINGTON,41.2984,-88.1255,STREAM
FB-05,FORKED CREEK,0.9 MI NE OF WILTON CENTER IN LAUGHTON FP,41.3602,-87.9446,STREAM
FB-06,FORKED CREEK,ELSNER RD 6.4 MI S OF FRANKFORT,41.4047,-87.8637,STREAM
FBA-01,JORDAN CREEK,ALLOTT RD 1.8 MI E OF WILMINGTON,41.3098,-88.109,STREAM
FBC-02,SOUTH BRANCH FORKED CREEK,CO RD 7000W WILL-KANK CO LINE,41.26563,-88.01333,STREAM
FBC-04,SOUTH BRANCH FORKED CREEK,ELEVATOR RD 4.2 MI SSE OF WILTON CENTER,41.2993,-87.9196,STREAM
FC-01,HORSE CREEK,2.5 MI NE ESSEX AT CLOSED BR,41.19798,-88.14799,STREAM
FCC-01,EAST BRANCH HORSE CREEK,CO RD 2000N 2 MI W BONFIELD,41.14618,-88.09987,STREAM
FF-01,ROCK CREEK,CO RD 5000W KANKAKEE RIVER STATE PARK,41.22122,-87.97344,STREAM
FFB-01,SOUTH BRANCH ROCK CREEK,3 MI SW MANTENO CO RD 1000W,41.23619,-87.89613,STREAM
FFBA-01,BLACK WALNUT CREEK,1.5 MI S PEOTONE AT KENNEDY RD,41.3102,-87.7908,STREAM
FKA-01,EXLINE SLOUGH,0.9 MI SSW EXLINE,41.13715,-87.77757,STREAM
FKA-02,EXLINE SLOUGH,CO RD 1000N BR 5.1 MI E MANTENO,41.2659,-87.7399,STREAM
FL-02,IROQUOIS RIVER,"CR 7760 S BR, 1.2 MI E OF CR 1000E AND 5.8 MI SW OF ST ANNE",41.00793,-87.82304,STREAM AMBIENT
FL-04,IROQUOIS RIVER,RT 52 BR (MAIN ST) 0.1 MI S OF IROQUOIS,40.82319,-87.58158,STREAM AMBIENT
FL-05,IROQUOIS RIVER,CO RD BR 3 MI S L'ERABLE,40.85881,-87.84158,STREAM
FL-06,IROQUOIS RIVER,CO RD BR 3.5 MI ENE WATSEKA,40.79143,-87.65327,STREAM
FL-07,IROQUOIS RIVER,RT 1 BR WATSEKA,40.79338,-87.7447,STREAM
FLA-01,MINNEE CREEK,3 MI SW OF AROMA PARK,41.0483333,-87.8541667,STREAM
FLD-01,BEAVER CREEK,CO RD BR 3 MI ENE BEAVERVILLE,40.96545,-87.59914,STREAM
FLD-03,BEAVER CREEK,CO RD BR 1.5 MI W PAPINEAU,40.9723,-87.75125,STREAM
FLD-04,BEAVER CREEK,5 MI E OF BEAVERVILLE,40.951367,-87.56065,STREAM
FLDA-01,LITTLE BEAVER CREEK,CO RD BR 2 MI S ST ANNE,40.99726,-87.7225,STREAM
FLDA-02,LITTLE BEAVER CREEK,4.2 MI SE ST ANNE,41.008217,-87.632075,STREAM
FLDA-03,LITTLE BEAVER CREEK,3.6 MI SW LEESVILLE,41.008783,-87.59985,STREAM
FLDA-04,LITTLE BEAVER CREEK,1.8 MI NW LEESVILLE,41.04685,-87.554933,STREAM
FLDA-05,LITTLE BEAVER CREEK,1 MI NE LEESVILLE,41.039683,-87.529867,STREAM
FLDA-06,LITTLE BEAVER CREEK,CO RD 7000S BR 7 MI E ST ANNE,41.0239,-87.579,STREAM
FLDAE-01,U-TRIB ST ANNE DITCH,1.9 MI E ST ANNE,41.0217139,-87.6783417,STREAM
FLDAZA-01,U-TRIB L BEAVER CREEK,4 MI E ST ANNE,41.02255,-87.638567,STREAM
FLDAZA-02,U-TRIB L BEAVER CREEK,4.8 MI W LEESVILLE CR,41.022817,-87.623983,STREAM
FLDAZB-01,U-TRIB LEESVILLE DITCH,(LEESVILLE DITCH) 1.2 MI W LEESVILLE,41.024217,-87.561683,STREAM
FLDAZD-01,U-TRIB PEMBROKE DITCH,(PEMBROKE DITCH) 1.5 MI W HOPKINS PARK,41.060383,-87.58155,STREAM
FLDAZE-01,U-TRIB NORTH BRANCH,(NORTH BRANCH) 0.1 MI SE HOPKINS PARK,41.061017,-87.547817,STREAM
FLDB-01,HOOPER BRANCH,5 MI E OF BEAVERVILLE,40.971617,-87.560917,STREAM
FLE-01,LANGAN CREEK,CO RD BR 4.5 MI ENE CLIFTON,40.9568,-87.84741,STREAM
FLF-01,PIKE CREEK,2.5 MI W MARTINTON CO RD,40.91474,-87.78003,STREAM
FLF-02,PIKE CREEK,CO RD 2200 E BR 2 MI SE MARTINTON,40.8827,-87.7121,STREAM
FLFA-01,NORTH MARTINTON DITCH,2.5 MI SE MARTINTON,40.912967,-87.673417,STREAM
FLG-02,PRAIRIE CREEK,CO RD 2400N BR 6 MI NW CRESCENT CITY DNS,40.8566667,-87.8991667,STREAM
FLH-01,SPRING CREEK,0.5 MI SE BUCKLEY E-W CO RD,40.5904,-88.02698,STREAM
FLH-02,SPRING CREEK,RT 49 BR 2 MI N CRESCENT CITY,40.80503,-87.86387,STREAM
FLH-03,SPRING CREEK,2 MI S ONARGA N-S CO RD,40.67888,-88.00293,STREAM
FLHB-01,LOUIS CREEK,CO RD 1000N BR 3 MI NE BUCKLEY,40.6338,-88.0237,STREAM
FLI-03,SUGAR CREEK,1.5 MI E MILFORD N-S CO RD,40.61938,-87.6615,STREAM
FLI-04,SUGAR CREEK,0.5 MI N WOODLAND CO RD,40.72398,-87.72726,STREAM
FLI-05,SUGAR CREEK,1.5 MI NW MILFORD CO RD,40.64667,-87.7243,STREAM
FLI-06,SUGAR CREEK,3 MI NNE STOCKLAND CO RD,40.64811,-87.56341,STREAM
FLIA-01,COON CREEK,WOODLAND RD BR 0.5 MI W WOODLAND,40.71456,-87.72536,STREAM
FLIA-02,COON CREEK,NE OF MILFORD DS 2400E BRIDGE,40.6991667,-87.6686111,STREAM
FLIB-02,JEFFERSON CREEK,CO RD 1900E BR 4.6 MI NE MILFORD,40.6619,-87.7695,STREAM
FLIC-04,MUD CREEK-EAST,CO RD 1000N BR 2 MI NNE STOCKLAND,40.63575,-87.57153,STREAM
FLID-02,MUD CREEK-WEST,1.5 MI W MILFORD,40.61771,-87.73389,STREAM
FLID-03,MUD CREEK-WEST,CO RD 1975 E BR 3 MI SW MILFORD,40.5982,-87.7566,STREAM
FLIDA-01,FOUNTAIN CREEK,CO RD 300N BR 3 MI S AND 1 MI E OF CLAYTONVILLE UPS,40.5305556,-87.8061111,STREAM
FLIDAA-01,WHISKY CREEK,CO RD 1650E BR 0.5 MI E CLAYTONVILLE,40.5719444,-87.8130556,STREAM
FLIDB-01,GAY CREEK,SW OF MILFORD AT 2100E BRIDGE,40.5763889,-87.7316667,STREAM
FLIDD-01,PIGEON CREEK,SW CISSNA PARK 150 YDS US HWY 49 BR,40.5591667,-87.8938889,STREAM
FLIDE-01,U-TRIB MUD CREEK-WEST,0.8 MI S MILFORD RD 2250E,40.6071,-87.7037,STREAM
FLIE-01,U-TRIB SUGAR CREEK,0.5 MI W STOCKLAND RD 900N,40.6197,-87.6083,STREAM
FLZC-01,U-TRIB 3 IROQUOIS RIVER,3 MI SE L'ERABLE,40.867717,-87.817417,STREAM
FM-01,SPRING CREEK,3 MI SE SUN RIVER TERRACE,41.099983,-87.685783,STREAM
FM-02,SPRING CREEK,2.2 MI E AROMA PARK ON BOY SCOUT RD,41.0797,-87.767,STREAM
FQ-01,TRIM CREEK,CO RD 7000N 1M SSW GRANT PK,41.22254,-87.65814,STREAM
FR-01,SINGLETON DITCH,1.9 MI E MOMENCE ON,41.16880278,-87.61558889,STREAM
G-01,DES PLAINES RIVER,I-55 BR 2 MI E CHANNAHON,41.42178,-88.19447,STREAM
G-02,DES PLAINES RIVER,135TH ST AT ROMEOVILLE,41.64038,-88.0715,STREAM
G-03,DES PLAINES RIVER,STEPHENS ST LEMONT,41.68156,-88.0022,STREAM
G-07,DES PLAINES RIVER,RT 120 BR W OF GURNEE,42.34371,-87.9409,STREAM AMBIENT INACTIVE
G-08,DES PLAINES RIVER,"RUSSEL RD BR, 1 MI E OF I-95 AND 0.75 MI DNS OF WI STATE LINE",42.48925,-87.92592,STREAM AMBIENT
G-11,DES PLAINES RIVER,DIVISION ST BR AT LOCKPORT,41.58191,-88.07159,STREAM AMBIENT INACTIVE
G-12,DES PLAINES RIVER,BRANDON RD S JOLIET,41.50039,-88.10371,STREAM
G-14,DES PLAINES RIVER,OAKTON ST DES PLAINES,42.02499,-87.87472,STREAM
G-15,DES PLAINES RIVER,IRVING PK RD IN SCHILLER PARK,41.95306,-87.8542,STREAM AMBIENT
G-16,DES PLAINES RIVER,ROOSEVELT RD FORST PK,41.8645,-87.82724,STREAM
G-18,DES PLAINES RIVER,WILLOW SPRINGS RD,41.73545,-87.88166,STREAM
G-25,DES PLAINES RIVER,WADSWORTH RD WADSWORTH,42.42879,-87.93042,STREAM
G-33,DES PLAINES RIVER,43RD ST RT 66 LYONS,41.81436,-87.80946,STREAM
G-35,DES PLAINES RIVER,UPS DAN WRIGHT BSCAMP,42.21971,-87.93329,STREAM
G-38,DES PLAINES RIVER,TOUHY AV PK RIDGE,42.01033,-87.86132,STREAM
G-39,DES PLAINES RIVER,"BARRYPOINT RD BR, 200 FT DNS OF HOFMANN DAM ON S EDGE OF RIVERSIDE",41.82124,-87.82179,STREAM AMBIENT
G-44,DES PLAINES RIVER,BETWEEN FOREST AND 26TH,41.8359889,-87.8275,STREAM
G-46,DES PLAINES RIVER,1.5 MI W OF MT PROSPECT DNS OF DAM # 2 IN COOK CO FOREST PRESERVE,42.0819528,-87.8900806,STREAM
GA-03,GRANT CREEK,5 MI N OF WILMINGTON IN MIDEWIN NF,41.3801,-88.1445,STREAM
GB-01,DU PAGE RIVER,OLD RT 6 S CHANNAHON,41.42039,-88.22745,STREAM
GB-10,DU PAGE RIVER,"PLAINFIELD-NAPERVILLE RD BR, 0.1 MI N OF BOUGHTON RD ON W EDGE OF BOLINGBROOK",41.69024,-88.16624,STREAM AMBIENT INACTIVE
GB-11,DU PAGE RIVER,RT 52 BR SHOREWOOD,41.52157,-88.19483,STREAM AMBIENT
GB-19,DU PAGE RIVER,2 MI E MINOOKA ON SHEPLEY ROAD,41.46806944,-88.20900556,STREAM
GBE-01,LILLY CACHE CREEK,RT 30 BR 1 MI SE PLAINFLD,41.58721,-88.17801,STREAM
GBK-02,WEST BRANCH DU PAGE RIVER,2 MI S NAPERVILLE,41.72032,-88.13203,STREAM
GBK-03,WEST BRANCH DU PAGE RIVER,RT 34 BR NAPERVILLE,41.78189,-88.17521,STREAM
GBK-04,WEST BRANCH DU PAGE RIVER,WARRENVILLE RD,41.81749,-88.17135,STREAM
GBK-05,WEST BRANCH DU PAGE RIVER,RT 56 BR WARRENVILLE,41.82539,-88.17936,STREAM AMBIENT
GBK-06,WEST BRANCH DU PAGE RIVER,MACK RD N WARRENVILLE,41.84236,-88.19842,STREAM
GBK-07,WEST BRANCH DU PAGE RIVER,GARYS MILL RD W CHGO,41.85815,-88.19352,STREAM
GBK-09,WEST BRANCH DU PAGE RIVER,ST CHARLES RD N WEST CHICAGO,41.91105,-88.17906,STREAM AMBIENT
GBK-HP-C2,WEST BRANCH DU PAGE RIVER,"WALNUT ST BR 0.3 MI DNS MWRDGC-HANOVER PARK WWTP, HANOVER PARK",41.9957,-88.1363,STREAM FACILITY
GBL-02,EAST BRANCH DU PAGE RIVER,S WASHINGTON ST/NAPERVILLE RD BR 0.5 MI S OF NAPERVILLE,41.7109,-88.12797,STREAM
GBL-07,EAST BRANCH DU PAGE RIVER,"SR 56 BR 0.3 MI E OF SR 53, NW EDGE OF DOWNERS GROVE",41.83163,-88.04765,STREAM
GBL-10,EAST BRANCH DU PAGE RIVER,"US 34 BR 0.2 MI W OF SR 53, LISLE",41.8006,-88.08141,STREAM AMBIENT
GBL-13,EAST BRANCH DU PAGE RIVER,"UPS FOOTBRIDGE AT HIDDEN LAKES NEAR TROUT FARM RD, 2 MI SW OF WOODRIDGE",41.7124,-88.0899,STREAM
GBL-19,EAST BRANCH DU PAGE RIVER,"ROYCE RD BR 0.1 MI W OF SR 53, N EDGE OF BOLINGBROOK",41.718,-88.0705,STREAM
GC-03,JACKSON CREEK,ROWEL RD 3.5MI NE ELWOOD,41.4391667,-88.0591667,STREAM
GC-04,JACKSON CREEK,CHERRY HILL RD 2.3 MI NW OF MANHATTAN,41.4399,-88.021,STREAM
GCA-01,MANHATTAN CREEK,2.5 MI NE ELWOOD,41.43,-88.0772222,STREAM
GCA-M-C3,MANHATTAN CREEK,CHERRY HILL RD BR 1.5 MI W OF MANHATTAN AND 1.6 MI DNS MANHATTAN WWTP,41.4204,-88.0205,STREAM FACILITY
GCB-NL-C3,JACKSON BRANCH,BERNHARD RD BR 3.5 MI NW OF MANHATTAN AND 4.4 MI DNS NEW LENOX #2 WWTP,41.4598,-88.0329,STREAM FACILITY
GCB-NL-E,JACKSON BRANCH,"NEW LENOX #2 WWTP, 2210 SANFORD AVE, 3 MI SW OF NEW LENOX",41.4784,-87.9971,STREAM FACILITY
GC-E-C1,JACKSON CREEK,S BRANDON RD BR 1 MI N OF ELWOOD AND 0.15 MI DNS ELWOOD WWTP,41.4225,-88.1106,STREAM FACILITY
GC-E-C2,JACKSON CREEK,PATTERSON RD BR 1 MI NW OF ELWOOD AND 0.8 MI DNS ELWOOD WWTP,41.4213,-88.1207,STREAM FACILITY
GC-E-C3,JACKSON CREEK,KANKAKEE ST BR 1.8 MI W OF ELWOOD AND 3.4 MI DNS ELWOOD WWTP,41.4117,-88.1459,STREAM FACILITY
GG-01,HICKORY CREEK,RT 52 BR JOLIET,41.51069,-88.07864,STREAM
GG-04,HICKORY CREEK,GAUGES RD 3 MI E JOLIET,41.52629,-88.00485,STREAM
GG-06,HICKORY CREEK,1 MI NE NEW LENOX,41.52315,-87.94283,STREAM
GG-10,HICKORY CREEK,OAK HIGHLANDS SD DIS TO CR,41.5255556,-88.0411111,STREAM
GG-13,HICKORY CREEK,1.4 MI DNS N LENOX STP 1,41.5209722,-87.9933333,STREAM
GG-14,HICKORY CREEK,0.2 MI DNS N LENOX STP 1,41.5156389,-87.9709722,STREAM
GG-21,HICKORY CREEK,RT 30 BR E FRANKFORT,41.5063889,-87.8219444,STREAM
GG-22,HICKORY CREEK,"JOLIET ST BR, 0.2 MI W OF US 52/SR 53 BR ON S EDGE OF JOLIET",41.5076556,-88.0838861,STREAM AMBIENT
GGA-02,SPRING CREEK,DRAPER AVE BR E JOLIET,41.53938,-88.05488,STREAM
GGA-03,SPRING CREEK,GOUGER RD 4.4 MI NE OF JOLIET,41.55,-88.0057,STREAM
GGA-06,SPRING CREEK,20 YDS DNS OF PARKER RD,41.5772222,-87.949,STREAM
GGB-01,MARLEY CREEK,FRANCIS RD NE NEW LENOX,41.53194,-87.93743,STREAM
GGBA-01,EAST BRANCH MARLEY CREEK,TOWN LINE RD 1.4 MI NW OF MOKENA,41.5434,-87.9088,STREAM
GGC-03,UNION DRAINAGE DITCH,0.6 MI DNS FRANKFORT N STP,41.5213889,-87.8263889,STREAM
GHC-01,FIDDYMENT CREEK,"TABLE ST BR W EDGE RUNYON CO FORREST PRESERVE LOCKPORT, 0.3 MI NNE OF SR 171 AND THORNTON STREET",41.60069,-88.05016,STREAM
GJ-01,SAWMILL CREEK,BLUFF RD ROCKY GLENN FP,41.7076,-87.9627,STREAM
GK-03,FLAGG CREEK,83RD ST WILLOW SPRINGS,41.73882,-87.89644,STREAM
GL-01,SALT CREEK,"YORK RD, 0.3 MI N OF OGDEN AVE (SR 34), HINSDALE",41.82073,-87.92701,STREAM
GL-09,SALT CREEK,"WOLF RD, 0.5 MI N OF OGDEN AVE (SR34), WESTERN SPRINGS",41.8257,-87.90021,STREAM AMBIENT
GL-17,SALT CREEK,"THORNDALE RD AT SALT CREEK COUNTRY CLUB, ITASCA",41.9838,-87.99055,STREAM
GL-26,SALT CREEK,0.3 MI NE BIESTERFIELD RD/ARLINGTON HEIGHTS RD BIESTERFIELD PKWY (JOHN F. KENNEDY BLVD.),42.0051,-87.9958,STREAM
GLA-02,ADDISON CREEK,WASHINGTON BLVD IN BELLWOOD,41.88185,-87.86896,STREAM AMBIENT
GLA-05,ADDISON CREEK,DIANA COURT BENSENVILLE,41.93968,-87.92766,STREAM
GLB-01,SPRING BROOK,PROSPECT AV ITASCA,41.97181,-87.99809,STREAM
GLB-02,SPRING BROOK,ORCHARD ST ITASCA N RT 19,41.97188,-88.0116,STREAM
GO-01,WILLOW CREEK,RIVER RD ROSEMONT,41.99005,-87.8599,STREAM
GU-04,INDIAN CREEK,30 YDS DNS INDIAN CR RD,42.2333333,-88.0233333,STREAM
GU-06,INDIAN CREEK,0.8 MI N PRAIRIE VIEW AT VERNON TWP PARK,42.2067222,-87.9602278,STREAM
GU-07,INDIAN CREEK,0 MI SE LONG GROVE ON RT 83,42.21755833,-87.99446111,STREAM
GUB-01,SEAVEY DRAINAGE DITCH,RT 45 BR 2.1 MI NW OF HALF DAY,42.2199,-87.9663,STREAM
GV-01,BULL CREEK,RT 21 MILWAUKEE AV LIBERTYVILLE,42.3118,-87.96361,STREAM
GV-02,BULL CREEK,RT 137 (BUCKLEY ROAD) 1.7 MI NNW OF LIBERTYVILLE,42.3057,-87.9687,STREAM
GVA-01,U-TRIB BULL CREEK,RT 137 (PETERSON ROAD) 2.7 MI NW OF LIBERTYVILLE,42.3066,-87.9949,STREAM
GWA-01,NORTH MILL CREEK,4 MI E ANTIOCH,42.4658333,-88.0086111,STREAM
GWA-03,NORTH MILL CREEK,"END OF KELLY RD 2.4 MI NNE OF LINDENHURST, DNS OF RASMUSSEN LAKE",42.444221,-88.000557,STREAM
GWAA-L-C2,HASTINGS CREEK,"W MILLER RD, 400 FT W OF BECK RD AND 1.3 MI DNS LINDENHURST WWTP",42.447781,-88.0248,STREAM FACILITY
HA-04,LITTLE CALUMET RIVER NORTH,HALSTED ST CHICAGO,41.65738,-87.64129,STREAM
HB-01,LITTLE CALUMET RIVER SOUTH,S ASHLAND AV RIVERDALE,41.65176,-87.66052,STREAM
HB-42,LITTLE CALUMET RIVER SOUTH,S HOLMAN AV IND ST LINE N MUNSTER IN,41.5776,-87.52203,STREAM AMBIENT
HBD-04,THORN CREEK,THORNTON RD BR AT THORNTON,41.56821,-87.60782,STREAM AMBIENT
HBD-05,THORN CREEK,RT 30 BR CHICAGO HEIGHTS,41.50601,-87.6447,STREAM
HBDA-01,NORTH CREEK,COTTAGE GROVE NE GLENWOOD,41.55686,-87.59577,STREAM
HBDB-02,BUTTERFIELD CREEK,CRAWFORD AV OLY FLDS,41.51019,-87.71308,STREAM
HBDB-03,BUTTERFIELD CREEK,CHICAGO RD HOMEWOOD,41.53986,-87.64954,STREAM
HBDB-05,BUTTERFIELD CREEK,W OF GLENWOOD AT GLENWOOD RD BR,41.5444444,-87.6266667,STREAM
HBDB-06,BUTTERFIELD CREEK,"E OLYMPIA FIELDS, US COUNTRY CLB RD",41.5219444,-87.6841667,STREAM
HBDC-02,DEER CREEK,COTTAGE GROVE AV GLENWOOD,41.53656,-87.59699,STREAM
HBDC-03,DEER CREEK,"E UNIVERSITY PARK, E WESTERN AVE",41.4472222,-87.6705556,STREAM
HBDC-04,DEER CREEK,"E STEGER, S STEGER RD, E STATE ST",41.4697222,-87.6066667,STREAM
HBE-02,PLUM CREEK,2.5 MI E CRETE,41.43762,-87.56585,STREAM
HBE-03,PLUM CREEK,3 MI SSE CRETE ON BEMES RD,41.4072222,-87.5972222,STREAM
HBE-04,PLUM CREEK,GOODENOW RD 0.5 MI E OF GOODENOW,41.3911,-87.628,STREAM
HC-01,SOUTH BRANCH CHICAGO RIVER,VAN BUREN ST CHICAGO,41.87673,-87.63747,STREAM
HCB-01,CHICAGO RIVER,AT WELLS ST CHICAGO,41.88742,-87.63396,STREAM
HCC-07,NORTH BRANCH CHICAGO RIVER,TOUHY AV BR AT NILES,42.01237,-87.79554,STREAM AMBIENT
HCCA-02,NORTH SHORE CHANNEL,OAKTON ST SKOKIE,42.02634,-87.70994,STREAM
HCCA-04,NORTH SHORE CHANNEL,PETERSON AV CHICAGO,41.99025,-87.70903,STREAM
HCCB-05,WEST FORK NORTH BRANCH CHICAGO RIVER,DUNDEE RD BR NORTHBROOK,42.1383,-87.83478,STREAM
HCCB-13,WEST FORK NORTH BRANCH CHICAGO RIVER,WALTERS AVE BR IN NBROOK,42.1275,-87.8242778,STREAM
HCCC-02,MIDDLE FORK NORTH BRANCH CHICAGO RIVER,LAKE-COOK CO LINE RD BR AT DEERFIELD,42.1526,-87.81833,STREAM AMBIENT
HCCC-04,MIDDLE FORK NORTH BRANCH CHICAGO RIVER,GOLF RD BR GLENVIEW,42.05525,-87.77515,STREAM
HCCC-06,MIDDLE FORK NORTH BRANCH CHICAGO RIVER,1.1 MI NE DEERFIELD ON DEERFIELD HIGH SCHOOL ACCESS ROAD,42.1879,-87.8512,STREAM
HCCC-08,MIDDLE FORK NORTH BRANCH CHICAGO RIVER,"EAST LAKE AVE 1 MI WSW OF I 90, GLENVIEW",42.07975,-87.7773,STREAM
HCCD-09,SKOKIE RIVER,WILLOW RD BR NR NORTHFIELD,42.10135,-87.75899,STREAM
HF-01,TINLEY CREEK,135TH ST BR NR CRESTWOOD,41.64664,-87.76646,STREAM
IA-01,ORCHARD CREEK,"NEXT TO ROCK SPRINGS RD 2 MI S, SE OF THEBES",37.19167,-89.44111,STREAM
IB-02,SEXTON CREEK,0.6 MI NE GALE,37.25727222,-89.44225,STREAM
IB-03,SEXTON CREEK,2.8 MI NE GALE,37.26977778,-89.40547222,STREAM
IB-07,SEXTON CREEK,2.5 MI NE GALE,37.27357,-89.41281,STREAM
IBA-08,MILLER CREEK,0.5 MI E THEBES,37.22254,-89.44096,STREAM
IBAA-01,SAMMONS CREEK,BEAN RIDGE RD 1.7 MI NE OF THEBES,37.22986,-89.42869,STREAM
IC-02,CLEAR CREEK,1 MI SSE OF BALD KNOB,37.53461,-89.33555,STREAM
IC-03,CLEAR CREEK,3 MI E OF WOLF LAKE,37.50161,-89.37691,STREAM
IC-05,CLEAR CREEK,2 MI E REYNOLDVILLE,37.3685,-89.36012,STREAM
IC-06,CLEAR CREEK,1.5 MI E MCCLURE,37.32045,-89.39368,STREAM
ICD-01,DUTCH CREEK,FARM RD 2 MI W JONESBORO,37.44133,-89.3081,STREAM
ICD-02,DUTCH CREEK,3 MI E WARE DNS CANY,37.45725,-89.34714,STREAM
ICDB-01,GREEN CREEK,NEXT TO RT 146 BR 2.9 MI W OF JONESBORO AT HISTORICAL MARKER,37.457,-89.326,STREAM
ICE-01,HUTCHINS CREEK,3 MI ENE OF WOLF LAKE,37.51639,-89.38167,STREAM
ICE-02,HUTCHINS CREEK,"FORD AT HUTCHINS CREEK RD, 3 MI NE OF WOLF LAKE AND 5 MI SW OF ALTO PASS",37.53132,-89.39563,STREAM
ICIA-01,RUNNING LAKE DITCH,WARE-WOLF LAKE RD 2 MI W OF WOLF LAKE,37.50903,-89.47583,STREAM
II-02,MARYS RIVER,RT 154 BR 3 MI ESE SPARTA,38.10829,-89.64943,STREAM
II-03,MARYS RIVER,"WINE HILL RD BR AT WELGE RD, 0.3 MI E OF WELGE",37.9562,-89.70617,STREAM AMBIENT
II-05,MARYS RIVER,4 MI E CHESTER CO RD 700N,37.91893,-89.73227,STREAM
II-91,MARYS RIVER,EDEN RD 1.5 MI N STEELEVILLE,38.03365,-89.66966,STREAM
IIB-40,MILL CREEK,DEERFIELD RD 5 MI E CHESTER,37.90915,-89.72489,STREAM
IIBB-01,PINEY BRANCH,PINEY CREEK ROAD 2.3 MI SW OF SHILOH HILL,37.901,-89.651,STREAM
IIC-01,LITTLE MARYS RIVER,3.5 MI W OF STEELEVILLE,38.0155556,-89.7325,STREAM
IIC-39,LITTLE MARYS RIVER,3 MI NE CHESTER AT COVERED BR,37.94852,-89.76579,STREAM
IICA-01,GRAVEL CREEK,UNION SCH RD 2 MI NE CHESTER,37.94383,-89.79346,STREAM
IIH-36,COX CREEK,CHESTER ST 0.5 MI S STEELEVILLE,37.99404,-89.66721,STREAM
IIK-27,MAXWELL CREEK,2 MI SE SPARTA ON PIERCE LANE,38.09866,-89.65756,STREAM
IX-03,CACHE RIVER-MISS RIVER,0.5 MI S ULLIN RT 51 BR,37.2733,-89.18378,STREAM
IX-04,CACHE RIVER-MISS RIVER,"SANDUSKY RD BR, 0.5 MI W OF MORRIS RD AND 0.7 MI E OF SANDUSKY AND SR 127",37.2032,-89.25819,STREAM AMBIENT
IX-05,CACHE RIVER-MISS RIVER,1.3 MI S PERKS,37.29084,-89.08113,STREAM
IX-06,CACHE RIVER-MISS RIVER,N END OF UNITY NO BRIDGE,37.15964,-89.26903,STREAM
IX-08,CACHE RIVER-MISS RIVER,MORRIS ROAD 1.2 MI SE OF SANDUSKY,37.196389,-89.2525,STREAM
IXC-02,BOAR CREEK,RT 51 BR 2 MI S OF PULASKI,37.18438,-89.20265,STREAM
IXCC-01,PULASKI SLOUGH,2 MI SW PULASKI N-S CO RD,37.19156,-89.23066,STREAM
IXD-01,SANDY CREEK,0.3 MI NW DAWLEYS,37.2149,-89.30025,STREAM
IXD-02,SANDY CREEK,"GRAPEVINE TRAIL RD 3 MI W OF TAMMS, BEHIND SANDY CR BAPTIST CHURCH",37.232,-89.323,STREAM
IXDA-01,WOLF CREEK,WOLF CREEK RD 3.5 MI WNW OF SANDUSKY,37.217,-89.335,STREAM
IXDB-01,WEST BRANCH SANDY CREEK,DISWOOD RD 4 MI W OF TAMMS,37.234,-89.343,STREAM
IXF-01,MILL CREEK,1 MI NE TAMMS E-W RD,37.2434,-89.25025,STREAM
IXF-02,MILL CREEK,2 MI SW WETAUG,37.30647,-89.20322,STREAM
IXFA-01,JACKSON CREEK,TAMMS PRISON RD 1.5 MI N OF TAMMS,37.258,-89.265,STREAM
IXFB-01,HARTLINE CREEK,NEXT TO RIFLE RANGE RD 1.5 MI SE OF ELCO,37.291,-89.242,STREAM
IXFB-02,HARTLINE CREEK,RIFLE RANGE RD 0.5 MI SE OF ELCO,37.296,-89.258,STREAM
IXFC-01,COOPER CREEK,NEXT TO COUNTY LINE RD 0.75 MI SW OF MILL CREEK UPS OF YOU-BE-HOLLOW CONFL.,37.335,-89.265,STREAM
IXFD-01,LINGLE CREEK,LINGLE CREEK RD 0.75 MI NW OF MILL CREEK,37.3522,-89.261,STREAM
IXI-01,INDIAN CAMP CREEK,RAILROAD ST ULLIN,37.27843,-89.18543,STREAM
IXJ-01,BIG CREEK,1 MI E DONGOLA,37.36171,-89.14385,STREAM
IXJ-02,BIG CREEK,2 MI E BALCOM ON CHURCH RD,37.41107,-89.16434,STREAM
IXJAA-01,CROOKED CREEK,HAPPY HOLLER RD 2 MI SW OF DONGOLA,37.342,-89.194,STREAM
IXJC-01,LITTLE CREEK NORTH,1 MI SE BALCOM ON OLD RT 51,37.40075,-89.18333,STREAM
IXM-04,CYPRESS CREEK,3.5 MI SE MT PLEASANT,37.38944,-89.05688,STREAM
JD-02,MAEYSTOWN CREEK,BLUFF RD BR NE CHALFIN BR,38.2132,-90.26406,STREAM
JH-03,FOUNTAIN CREEK,HH RD BR UPS ANDYS RUN,38.36474,-90.23279,STREAM
JH-04,FOUNTAIN CREEK,RT 156 BR 2 MI W WATERLOO,38.32616,-90.19595,STREAM
JI-01,CARR CREEK,VALMEYER ROAD 0.5 MI W COLUMBIA,38.4421944,-90.219889,STREAM
JMA-02,CANAL #1,TRIPLE LAKES RD,38.54747,-90.16035,STREAM
JMAA-02,PRAIRIE DUPONT CREEK,2.5 MI SE OF CENTERVILLE AT IMBS STATION RD,38.519556,-90.142722,STREAM
JMAA-03,PRAIRIE DUPONT CREEK,ZING RD (CO RD 1800N) 1.5 MI N OF MILLSTADT AT RM 16.6,38.48528,-90.10153,STREAM
JMAC-02,HARDING DITCH,LAKE DR IN FRANK HOLTEN STATE PK EAST ST LOUIS,38.59503,-90.0884,STREAM AMBIENT INACTIVE
JN-02,CAHOKIA CANAL,SAND PRAIRIE LN SE HORSESHOE LAKE 4 MI W COLLINSVILLE,38.66694,-90.06556,STREAM AMBIENT
JNA-01,CANTEEN CREEK,SAND PRAIRIE LN SE HORSESHOE LAKE 0.5 MI NW MONKS MOUND,38.66611,-90.06556,STREAM AMBIENT INACTIVE
JNA-02,CANTEEN CREEK,RT 157 CASEYVILLE,38.64347,-90.01718,STREAM
JNC-01,BURDICK BRANCH,1.5 MI SW OF GLEN CARBON AT THE RT 157 BR,38.7337861,-90.0020028,STREAM
JND-01,JUDYS BRANCH,1 MI SW OF GLEN CARBON AT THE RT 157 BR,38.7408167,-90.001975,STREAM
JNDA-01,U-TRIB JUDYS BRANCH,"UPS GLENN CARBON RD IN MINER PARK, W EDGE GLENN CARBON",38.7491,-89.98355,STREAM
JQ-03,CAHOKIA CREEK,4 MI NE PRAIRIETOWN,38.9836,-89.85085,STREAM
JQ-04,CAHOKIA CREEK,RT 138 BR 2 MI SE BENLD,39.07872,-89.7816,STREAM
JQ-05,CAHOKIA CREEK,RT 143 BR NW EDWARDSVILLE,38.8243,-89.9744,STREAM AMBIENT
JQ-07,CAHOKIA CREEK,RT 111 BR 1.5 MI S ROXANA,38.80474,-90.06685,STREAM
JQA-01,INDIAN CREEK,RT 143 BR 2 MI E WOOD RIVER,38.84141,-90.03317,STREAM
JQE-01,SHERRY CREEK,POSSUM HILL ROAD 2 MI E HOLIDAY SHORES,38.91930556,-89.905889,STREAM
JR-02,WOOD RIVER,RT 3 BR IN EAST ALTON,38.88417,-90.12222,STREAM AMBIENT INACTIVE
JRA-02,EAST FORK WOOD RIVER,BR NW EDGE BETHALTO,38.92378,-90.06879,STREAM
JRB-01,WEST FORK WOOD RIVER,1 MI N OF ALTON ON WOOD STATION RD,38.935611,-90.128,STREAM
JV-01,PIASA CREEK,RT 3 BR NEAR MELVILLE (OLD RT 100) 5 MI NW ALTON,38.95951,-90.27167,STREAM
JV-02,PIASA CREEK,AIRPORT ROAD 3.6 MI NNW MELVILLE,38.98761111,-90.260306,STREAM
JVA-01,MILL CREEK,3 MI E OF ELSAH ON LOCKHAVEN RD,38.952778,-90.304444,STREAM
KC-03,SNY RIVER,RT 54 BR W OF ATLAS,39.50611,-90.9843,STREAM
KCA-01,BAY CREEK,W EDGE OF NEBO,39.44311,-90.79549,STREAM AMBIENT
KCA-03,BAY CREEK,CO RD 3450 E 2 MI N OF TIME,39.585,-90.71303,STREAM
KCAG-01,HONEY CREEK,CO RD 600N BR 2.5 MI N NEBO,39.48771,-90.77964,STREAM
KCAG-02,HONEY CREEK,FORD ADJACENT TO CO RD 775N 1.5 MI SE INDEPENDENCE,39.5091667,-90.7702778,STREAM
KCB-05,SIX MILE CREEK,CO RD 2500E 2.5 MI NW PLEASANT HILL,39.48851,-90.89692,STREAM
KCG-01,PIGEON CREEK,2.5 MI NW OF HULL NEAR JOURNEY CEMETERY,39.7457,-91.22702778,STREAM
KCH-01,HADLEY CREEK,1 MI E KINDERHOOK,39.70195,-91.1293,STREAM
KCI-02,MCCRANEY CREEK,"FORD OFF 1850 E, 3 MI NE HULL",39.7425278,-91.1542139,STREAM
KD-01,MILL CREEK,RT 96 BR 4 MI SE QUINCY,39.87806,-91.3257,STREAM
KDA-01,BURTON CREEK,RT 96 BR 5 MI SE QUINCY,39.86913,-91.30837,STREAM
KI-05,BEAR CREEK,1 MI S 4 MI W WEST POINT,40.23389,-91.2643,STREAM
KI-08,BEAR CREEK,1050 E BR 4 MI ESE LIMA,40.1637556,-91.3091139,STREAM
KI-09,BEAR CREEK,CO RD 600N 4.2 MI NW OF WEST POINT,40.28469,-91.25236,STREAM
KIF-02,SOUTH FORK BEAR CREEK,1.5 MI S LORAINE,40.12424,-91.23716,STREAM
KIF-05,SOUTH FORK BEAR CREEK,CO RD 1250 E SW EDGE OF LORAINE,40.14556,-91.23254,STREAM
KX-02,KISER CREEK,RT 96 BR NEW CANTON,39.6329,-91.09207,STREAM
LB-02,CAMP CREEK,1.5 MI SE DALLAS CITY,40.6102778,-91.1261111,STREAM
LC-01,ELLISON CREEK,3.5 MI ESE GULFPORT,40.79316,-90.9869,STREAM
LD-02,HENDERSON CREEK,RT 94 BR 1 MI S OF BALD BLUFF,41.00191,-90.85343,STREAM AMBIENT
LD-07,HENDERSON CREEK,3 MI SW ALEXIS ON CO RD 900E,41.0294444,-90.6097222,STREAM
LD-08,HENDERSON CREEK,OLD BRIDGE SITE 2.3 MILES SW OF BALD BLUFF,40.9880583,-90.8759778,STREAM
LDA-01,SOUTH HENDERSON CREEK,BR NE CORNER GLADSTONE,40.86889,-90.95347,STREAM
LDA-03,SOUTH HENDERSON CREEK,COUNTRY CLUB NW EDGE BIGGSVILLE,40.85699,-90.87411,STREAM
LDB-01,SMITH CREEK,1.5 MI E OQUAWKA AT FORD,40.92959,-90.9098,STREAM
LDD-14,CEDAR CREEK,3 MI NW MONMOUTH NEAR QUARRY,40.96609,-90.66893,STREAM
LDD-23,CEDAR CREEK,2 MI N CAMERON,40.92204,-90.51742,STREAM
LDD-24,CEDAR CREEK,5 MI SW OF GALESBURG,40.9211111,-90.4980556,STREAM
LDDCZ-MN-C1,U-TRIB MARKHAM CREEK,11TH ST 100 YDS DNS MONMOUTH STP DISCH,40.921389,-90.6308056,STREAM FACILITY
LDD-GB-C1,CEDAR CREEK,OLD PICKARD RD NR GALESBURG,40.933615,-90.422503,STREAM FACILITY
LDE-03,NORTH HENDERSON CREEK,5 MI E SEATON,41.10066,-90.68679,STREAM
LE-03,POPE CREEK,4 MI SSW ALEDO,41.14278,-90.78347,STREAM
LF-01,EDWARDS RIVER,RT 17 BR 1 MI N OF NEW BOSTON,41.18696,-90.96744,STREAM AMBIENT INACTIVE
LF-05,EDWARDS RIVER,1.5 MI N OF ALEDO,41.22847,-90.75149,STREAM
LF-08,EDWARDS RIVER,2.3 MI SW OF ANDOVER,41.26935,-90.33884,STREAM
LZF-01,HONEY CREEK,1.5 MI NE LOMAX ON CO RD 800E,40.6919444,-91.045,STREAM
LZF-04,HONEY CREEK,FARM FORD 2.6 MILES NW OF LOMAX,40.698294,-91.032175,STREAM
MJ-01,PLUM RIVER,RT 52 BR E OF SAVANNA,42.09832,-90.12643,STREAM AMBIENT INACTIVE
MJ-02,PLUM RIVER,"2 MI NW OF PLEASANT VALLEY, EAST KNAPP RD BR",42.243819,-90.04005,STREAM
MJB-02,CARROLL CREEK,PALISADE RD 3.5M W MT CAROL,42.10782,-90.05547,STREAM
MJB-03,CARROLL CREEK,WEST EDGE OF MT CARROLL,42.1031833,-89.9820583,STREAM
MJE-01,MUDDY PLUM RIVER,7.7 MI S STOCKTON AT SOUTH BRUNNER RD,42.2416,-90.0042,STREAM
MN-03,APPLE RIVER,US 20 BR 2 MI W OF ELIZABETH,42.31882,-90.25432,STREAM AMBIENT
MN-04,APPLE RIVER,5 MI N WOODBINE,42.40122,-90.13225,STREAM
MN-05,APPLE RIVER,2 MI NE ELIZABETH ON S GOOSEHOLLOW RD,42.34082,-90.20477,STREAM
MN-07,APPLE RIVER,E CANYON RD IN ARC STATE PARK,42.44841,-90.0552,STREAM
MN-17,APPLE RIVER,0.75 MI N HANOVER DNS UNN TRIB,42.26573,-90.2755,STREAM
MN-18,APPLE RIVER,SCOUT CAMP RD 1.5 MI S APPLE R,42.47859,-90.1042,STREAM
MN-20,APPLE RIVER,S CRAZY HOLLOW RD 2 MI S OF HANOVER,42.2281,-90.2698,STREAM
MND-01,FURNACE CREEK,2 MI NW ELIZABETH ON LONG HOLLOW RD,42.32999,-90.25774,STREAM
MNDA-01,LONG HOLLOW,2.8 MI NW ELIZABETH OFF W. LONG HOLLOW RD,42.3449,-90.264,STREAM
MNF-01,WELSH HOLLOW,1.3 MI N WOODBINE AT S SCOUT CAMP RD,42.3603,-90.1449,STREAM
MNI-12,SOUTH FORK APPLE RIVER,KUPPERSMITH RD 5 MI N STOCKTON,42.42453,-90.02321,STREAM
MNIA-11,CLEAR CREEK,APPLE RIVER CANYON STATE PK,42.44937,-90.04567,STREAM
MNIC-11,WOLF CREEK,2 MI E OF APPLE RIVER CANYON ST PK,42.4447222,-90.0125,STREAM
MNIE-01,U-TRIB SOUTH FORK APPLE RIVER,"RT 78 BR, 4.9 MI S OF WARREN DNS OF BR",42.4201,-89.9839,STREAM
MPA-01,SMALLPOX CREEK,3.4 MI SE GALENA AT S. ROCKEY HILL RD,42.3706,-90.3933,STREAM
MQ-01,GALENA RIVER,RT 20 BR AT GALENA,42.41061,-90.43081,STREAM AMBIENT
MQ-02,GALENA RIVER,3.5 MI N GALENA ON COUNCIL HILL RD,42.47639,-90.40653,STREAM
MQB-01,EAST FORK GALENA RIVER,N FORD RD COUNCIL HILL STATION,42.4675,-90.33875,STREAM
MS-01,SINSINAWA RIVER,2.5 MI WNW OF GALENA ON CHETLAIN LANE,42.4328167,-90.4882889,STREAM
MT-01,LITTLE MENOMINEE RIVER,1.3 MI SE MENOMINEE AT N MAIN ST,42.4746,-90.5505,STREAM
MU-01,MENOMINEE RIVER,2.8 MI NE EAST DUBUQUE AT N. TRANEL RD,42.5046,-90.5914,STREAM
MWD-01,ELIZA CREEK,675 E BR 1 MI S ELIZA,41.2786111,-90.9633333,STREAM
MZA-03,COPPERAS CREEK,238TH ST BR 2 MI S ILLINOIS CITY,41.3727778,-90.8991667,STREAM
MZR-01,TURKEY HOLLOW CREEK,TURKEY HOLLOW RD 4 MI E OF ANDALUSIA,41.433561,-90.646108,STREAM
N-05,BIG MUDDY RIVER,1.5 MI NE WOODLAWN CO RD 1450N,38.33694,-89.00408,STREAM
N-06,BIG MUDDY RIVER,RT 14 BR 3 MI W OF BENTON,37.99383,-88.9767,STREAM AMBIENT INACTIVE
N-11,BIG MUDDY RIVER,RT 149 BR 0.7 MI W OF PLUMFIELD,37.89145,-89.01973,STREAM AMBIENT
N-12,BIG MUDDY RIVER,RT 127 BR S OF MURPHYSBORO,37.75787,-89.32728,STREAM AMBIENT
N-17,BIG MUDDY RIVER,CAMBRIA RD AT BLAIRSVILLE,37.81761,-89.1295,STREAM
N-99,BIG MUDDY RIVER,5 MI E GRANDTOWER AT RATTLESNAKE FERRY,37.62528,-89.42799,STREAM
NA-02,CEDAR CREEK,HICK RIDGE RD 3.4M SW ETHERTON,37.65872,-89.37178,STREAM
NA-03,CEDAR CREEK,1 MI S BREWER SCHOOL ON DUTCH RIDGE,37.66095,-89.295556,STREAM
NA-04,CEDAR CREEK,1.5 MI NE ALTO PASS ON WATER WORKS,37.583981,-89.294072,STREAM
NAC-02,CAVE CREEK,JERUSALEM HILL ROAD 0.2 MI W OF PONOMA,37.628722,-89.341222,STREAM
NC-03,BEAUCOUP CREEK,RT 13-127 BR 6 MI SW DUQUOIN,37.96731,-89.35179,STREAM
NC-09,BEAUCOUP CREEK,5 MI W DUBOIS,38.22831,-89.31166,STREAM
NC-11,BEAUCOUP CREEK,RT 4 BR 2.8 MI S VERGENNES,37.86192,-89.33256,STREAM
NCB-01,RATTLESNAKE CREEK,RT 4 BR 1 MI N ORAVILLE,37.87768,-89.38541,STREAM
NCD-03,GALUM CREEK,6 MI NNE AVA,37.96045,-89.42971,STREAM
NCD-05,GALUM CREEK,RT 154 BR 3.5 MI N CUTLER,38.08686,-89.554,STREAM
NCD-07,GALUM CREEK,7 MI NE AVA ON WOLVERINE RD,37.982064,-89.441611,STREAM
NCDA-01,PIPESTONE CREEK,2 MI SE DENMARK,37.96607,-89.48422,STREAM
NCDB-01,LITTLE GALUM CREEK,GALUM CR RD 0.5 MI N PYRAMID ST,38.04023,-89.42867,STREAM
NCE-02,PANTHER CREEK-SOUTH,0.9 MI NW CUDGETOWN CEM,38.02329,-89.33369,STREAM
NCI-01,LITTLE BEAUCOUP CREEK,6 MI NNE PINCKNEYVILLE,38.15817,-89.33259,STREAM
NCK-02,SWANWICK CREEK,MISTY ROAD 5.8 MI NW OF PINCKNEYVILLE,38.170111,-89.407667,STREAM
NCN-02,LOCUST CREEK,7.4 MI W DUBOIS,38.22813,-89.34663,STREAM
ND-01,CRAB ORCHARD CREEK,"DILLINGER RD, 1.1 MI W OF REED STATION RD AND 3 MI NE OF CARBONDALE",37.77245,-89.17885,STREAM AMBIENT
ND-04,CRAB ORCHARD CREEK,RT 13 BR E EDGE OF MARION,37.7318,-88.88844,STREAM AMBIENT INACTIVE
ND-14,CRAB ORCHARD CREEK,SW MARION CABON ST,37.70982,-88.94623,STREAM
NDC-01,DRURY CREEK,GIANT CITY RD 2 MI SE CARBONDALE,37.69767,-89.18131,STREAM
NDC-02,DRURY CREEK,0.1 MI DNS SYCAMORE CR,37.70844,-89.17129,STREAM
NDC-99,DRURY CREEK,0.2 MI US MAKANDA BUS DIST,37.61375,-89.20893,STREAM
NDCA-01,SYCAMORE CREEK,2 MI E OF BOSKYDELL,37.6727778,-89.1666667,STREAM
NDCA-02,SYCAMORE CREEK,2 MI E OF CARBONDALE,37.7083333,-89.1719444,STREAM
NDCB-01,INDIAN CREEK,2.5 MI NE MAKANDA,37.65571,-89.17968,STREAM
NDCB-02,INDIAN CREEK,GIANT CITY ROAD 2.2 MI NE OF MAKANDA,37.62513,-89.16517,STREAM
NDD-03,GRASSY CREEK,AT WOLF CREEK RD,37.61227,-89.05046,STREAM
NDDA-01,LITTLE GRASSY CREEK,6 MI SSW CARTERVILLE,37.66141,-89.11869,STREAM
NDJ-01,WOLF CREEK,E RT 148 OLD RAILROAD,37.67652,-89.01934,STREAM
NE-04,LITTLE MUDDY RIVER,RT 14 BR 2 MI E OLD DUQUOIN,37.97577,-89.15377,STREAM
NE-05,LITTLE MUDDY RIVER,"ROYALTON RD, 1.6 MI NW OF FUNK RD AND 1.5 MI SE OF ELKVILLE",37.9009,-89.20851,STREAM AMBIENT
NE-09,LITTLE MUDDY RIVER,1 MI NE DUBOIS ON DAKOTA RD,38.232403,-89.199344,STREAM
NEB-02,REESE CREEK,2 MI E DUQUOIN ON PARK ST,38.01284,-89.18823,STREAM
NEI-01,PUNCHEON CREEK,4 MI ESE DUBOIS,38.19453,-89.15302,STREAM
NF-01,HURRICANE CREEK,4 MI WNW HERRIN,37.8211,-89.09622,STREAM
NG-04,POND CREEK,1 MI SW WEST FRANKFORT,37.87501,-88.94653,STREAM
NG-05,POND CREEK,LIBERTY SCHOOL ROAD 4.7 MI SE OF WEST FRANKFORT,37.859722,-88.835472,STREAM
NGA-02,LAKE CREEK,CO RD 1200E 0.3 MI S JOHNSTON CITY,37.80754,-88.92765,STREAM
NH-07,MIDDLE FORK BIG MUDDY RIVER,5 MI ENE BENTON CO RD 1800E,38.02531,-88.81642,STREAM
NH-23,MIDDLE FORK BIG MUDDY RIVER,2.2 MI SE BENT US RT 34,37.98601,-88.86243,STREAM
NH-26,MIDDLE FORK BIG MUDDY RIVER,1.7 MI NW WEST FRANKFORT,37.92798,-88.96067,STREAM
NHB-01,EWING CREEK,3.2 MI WNW THOMPSONVILLE,37.92755,-88.81722,STREAM
NHG-01,AKIN CREEK,N BOTAIL ROAD 8.8 MI E OF BENTON,38.013306,-88.742722,STREAM
NHH-01,SUGAR CAMP CREEK,RT 14 BR 4.5 MI ESE EWING,38.06098,-88.77419,STREAM
NI-01,GUN CREEK,3.3 MI E INA,38.14855,-88.84504,STREAM
NJ-07,CASEY FORK,RT 37 BR 3 MI S OF MOUNT VERNON,38.26935,-88.89863,STREAM AMBIENT
NJ-10,CASEY FORK,4.5 MI N MT VERNON CO RD 1750N,38.38088,-88.90807,STREAM
NJC-01,SEVEN MILE CREEK,2.5 MI E MT VERNON RD 1250N,38.30681,-88.85114,STREAM
NK-01,RAYSE CREEK,2 MI N OF WALTONVILLE,38.24945,-89.03656,STREAM AMBIENT
NK-02,RAYSE CREEK,3.7 MI W WOODLAWN RD 1400N,38.3278,-89.10646,STREAM
NL-01,SNOW CREEK,6 MI NW MT VERNON RD 1850N,38.39479,-89.01188,STREAM
NZL-01,MUD CREEK,WEST LAKE ROAD 2.1 MI SE OF MURPHYSBORO,37.74675,-89.291611,STREAM
NZN-15,ANDY CREEK,SATCH ROAD 1.6 MI NE OF CHRISTOPHER,37.990222,-89.025722,STREAM
O-02,KASKASKIA RIVER,"RM 238.1, CO RD 300E BR AT COOKS MILLS",39.58317,-88.41335,STREAM AMBIENT
O-03,KASKASKIA RIVER,"RM 29.2, RT 13 BR NEW ATHENS",38.31934,-89.88771,STREAM
O-04,KASKASKIA RIVER,"RM 18.6, RT 154 BR 2.5 MI W OF BALDWIN",38.1885,-89.888333,STREAM
O-07,KASKASKIA RIVER,"RM 87.8, RT 127 BR 3 MI S OF CARLYLE",38.57444,-89.36921,STREAM AMBIENT
O-08,KASKASKIA RIVER,"RM 135.7, RT 40-51 BR (GALLATIN ST) SE EDGE OF VANDALIA",38.96037,-89.08817,STREAM AMBIENT
O-15,KASKASKIA RIVER,"RM 224.4, RT 121 BR 1 MI N OF ALLENVILLE",39.57278,-88.53222,STREAM AMBIENT INACTIVE
O-17,KASKASKIA RIVER,"RM 254, RT 133 BR E EDGE OF CHESTERVILLE",39.70286,-88.38708,STREAM
O-20,KASKASKIA RIVER,"RM 57.2, RT 177 BR 5 MI NW OKAWVILLE NEAR VENEDY STATION",38.45075,-89.62778,STREAM AMBIENT
O-25,KASKASKIA RIVER,"RM 74.8, 2.5 MI N COVINGTON",38.48945,-89.44064,STREAM
O-31,KASKASKIA RIVER,"RM 270.1, CO RD 1450N BR 4.4 MI W OF HAYES",39.86454,-88.36451,STREAM AMBIENT
O-32,KASKASKIA RIVER,"RM 184.9, CO RD 1700E AT MOORE BR 5 MI SSW SHELBYVILLE",39.34011,-88.82453,STREAM
O-33,KASKASKIA RIVER,"RM 157.7, CO RD 2700N BR 7 MI E RAMSEY UPS BIG CR",39.13143,-88.97212,STREAM
O-35,KASKASKIA RIVER,"RM 283.1, CO RD 900N BR 3 MI N SADORUS",40.01102,-88.34858,STREAM
O-46,KASKASKIA RIVER,"RM 195.8, 0.5 MI S SHELBYVILLE",39.3963889,-88.8,STREAM
O-47,KASKASKIA RIVER,"RM 177, CO RD 1700E AT THOMPSON MILL COVERED BR 3 MI E COWDEN",39.25857,-88.81799,STREAM
O-70,KASKASKIA RIVER,"RM 289.6, CO RD 1400 N BR 3 MI W OF CHAMPAIGN AND 0.6 MI UPS COPPER SLOUGH CONF",40.0838,-88.3483,STREAM
O-97,KASKASKIA RIVER,3 MI SW BALDWIN,38.16183,-89.88981,STREAM
OA-01,NINEMILE CREEK,3.5 MI SSE EVANSVILLE,38.04624,-89.89245,STREAM
OB-03,HORSE CREEK,1.5 MI N OF RUMA,38.15754,-89.99812,STREAM
OC-04,RICHLAND CREEK-SOUTH,RT 156 BR 1.6 MI NE OF HECKER,38.32385,-89.97078,STREAM AMBIENT
OC-86,RICHLAND CREEK-SOUTH,0.8 MI DNS BLACK CR CONF,38.24467,-89.9457,STREAM
OC-90,RICHLAND CREEK-SOUTH,1 MI E OF SMITHTON,38.40287,-89.96875,STREAM
OCB-97,PRAIRIE DULONG CREEK,RT 159 BR S OF HECKER,38.25965,-89.99617,STREAM
OCB-99,PRAIRIE DULONG CREEK,4.75 MI S MILSTAD,38.38701,-90.09112,STREAM
OCC-98,WEST FORK RICHLAND CREEK SOUTH,3 MI N OF HECKER,38.35327,-89.98104,STREAM
OD-07,SILVER CREEK,RT 15 BR 2.2 MI SE OF FREEBURG,38.40633,-89.87398,STREAM AMBIENT
OD-09,SILVER CREEK,4 MI E OF EDWARDSVILLE,38.79156,-89.85643,STREAM
ODF-OF-A1,SILVER CREEK DRAINAGE DITCH,3 MI NE OF O'FALLON AND 0.2 MI UPS O'FALLON WWTP,38.6011111,-89.8372222,STREAM FACILITY
ODF-OF-C1,SILVER CREEK DRAINAGE DITCH,US 50 BR  3 MI E OF O'FALLON AND 0.2 MI DNS O'FALLON WWTP,38.594,-89.8357,STREAM FACILITY
ODF-OF-C2,SILVER CREEK DRAINAGE DITCH,3.3 MI SE OF O'FALLON AND 1.4 MI DNS O'FALLON WWTP,38.5816666,-89.8324,STREAM FACILITY
ODG-01,LITTLE SILVER CREEK,1 MI S OF LEBANON,38.58201,-89.80764,STREAM
ODL-02,EAST FORK SILVER CREEK,1.5 MI NW ST JACOB,38.72872,-89.79779,STREAM
ODLA-01,SUGAR FORK,1 MI E MARINE,38.78977,-89.74644,STREAM
OE-05,MUD CREEK,3 MI E LENZBURG,38.2936278,-89.7576028,STREAM
OG-01,ELKHORN CREEK,3 MI SE OF VENEDY,38.3646,-89.59861,STREAM
OG-02,ELKHORN CREEK,0.5 MI E OF VENEDY,38.39999,-89.63142,STREAM
OH-01,SUGAR CREEK,RT 161 BR W OF ALBERS,38.54148,-89.62663,STREAM AMBIENT INACTIVE
OH-05,SUGAR CREEK,2.5 MI S OF HIGHLAND,38.69171,-89.64891,STREAM
OHA-01,LAKE BRANCH-EAST,0.7 MI NW ALBERS,38.55409,-89.62626,STREAM
OHAA-07,BULL BRANCH,1.7 MI E AVISTON,38.60754,-89.57202,STREAM
OHF-TR-C1,TRENTON CREEK,"NEAR NASH ST, NE EDGE OF TRENTON AND 0.2 MI DNS TRENTON WWTP",38.6118,-89.6744444,STREAM FACILITY
OI-05,SHOAL CREEK,RT 161 BR 1 MI SE GERMANTOWN,38.53606,-89.52153,STREAM
OI-07,SHOAL CREEK,CO RD 275 N BR 1.5 MI NW OF PANAMA,39.04038,-89.55084,STREAM AMBIENT
OI-13,SHOAL CREEK,3.25 MI ENE OF ST ROSE,38.69431,-89.50041,STREAM
OI-14,SHOAL CREEK,3 MI SE OF SORENTO,38.96,-89.55667,STREAM
OI-15,SHOAL CREEK,2 MI SE OF POCAHONTAS,38.8063,-89.49554,STREAM
OIB-01,BEAVER CREEK,1.5 MI S DUDLEYVILLE,38.79895,-89.4263,STREAM
OIB-02,BEAVER CREEK,4 MI N OF BECKEMEYER,38.66816,-89.42636,STREAM
OIBA-01,FLAT BRANCH,5.5 MI NNW OF CARLYLE,38.68773,-89.39968,STREAM
OIC-02,LOCUST FORK,4.5 MI S POCAHONTAS,38.75368,-89.52894,STREAM
OID-04,EAST FORK SHOAL CREEK,1.4 MI SE OF COFFEEN,39.07389,-89.36,STREAM
OID-05,EAST FORK SHOAL CREEK,RT 140 BR GREENVILLE,38.89776,-89.41986,STREAM
OIG-01,DRY FORK,RIPSON BRIDGE AVE 2.6 MI S SORENTO,38.95660278,-89.57585,STREAM
OIJ-01,LAKE FORK,3.75 MI W PANAMA,39.02849,-89.58091,STREAM
OIL-03,MIDDLE FORK SHOAL CREEK,2 MI SW TAYLOR SPRING,39.10793,-89.52063,STREAM
OIM-02,WEST FORK SHOAL CREEK,3 MI NE WALSHVILLE,39.10038,-89.58149,STREAM
OJ-08,CROOKED CREEK,HOFFMAN RD BR 2.5 MI SW OF HOFFMAN,38.50698,-89.27348,STREAM AMBIENT
OJ-12,CROOKED CREEK,3 MI E OF CENTRAL CITY,38.55524,-89.06948,STREAM
OJA-01,LITTLE CROOKED CREEK,RT 177 BR 2 MI E COVINGTON,38.44139,-89.41702,STREAM
OJAF-NV-C1,MIDDLE-NASHVILLE CREEK,1.1 MI N OF NASHVILLE AND 230 YDS DNS NASHVILLE WWTP,38.3655555,-89.3841,STREAM FACILITY
OJB-02,LOST CREEK,2 MI NW OF HOFFMAN,38.55187,-89.29917,STREAM
OJB-04,LOST CREEK,3.5 MI NE HOFFMAN,38.5869444,-89.2536111,STREAM
OJBA-03,PRAIRIE CREEK,CREEK RD 0.6 MI NE HOFFMAN,38.54673056,-89.2543083,STREAM
OJC-03,GRAND POINT CREEK,3.9 MI NW IRVINGTON ON SYCAMORE RD,38.477144,-89.21815,STREAM
OK-01,EAST FORK KASKASKIA RIVER,RT 51 BR 6 MI N OF SANDOVAL,38.69099,-89.1001,STREAM AMBIENT INACTIVE
OKA-01,NORTH FORK KASKASKIA RIVER,CO RD 250E BR 1.5 MI N OF PATOKA,38.77382,-89.09576,STREAM AMBIENT INACTIVE
OL-02,HURRICANE CREEK,RT 140 BR 1 MI E OF MULBERRY GROVE,38.92242,-89.23696,STREAM AMBIENT
ON-01,HICKORY CREEK,CO RD 1150 E BR 3 MI S OF BLUFF CITY,38.92506,-89.03901,STREAM AMBIENT
OO-01,RAMSEY CREEK,RT 51 BR 3 MI S OF RAMSEY,39.10201,-89.08863,STREAM AMBIENT INACTIVE
OO-02,RAMSEY CREEK,6 MI NNW RAMSEY,39.21766,-89.16249,STREAM
OP-01,BIG CREEK,1 MI NW POST OAK,39.10779,-88.91782,STREAM
OPC-01,WOLF CREEK,E OF WRIGHTS CORNER,39.12972,-88.8557,STREAM
OQ-01,BECKS CREEK,CO RD 3300 N BR 2 MI W OF HERRICK,39.21586,-89.02033,STREAM AMBIENT
OQ-03,BECKS CREEK,CO RD 125 N BR 2 MI NW OF HERRICK,39.23245,-89.01955,STREAM
OQA-01,MITCHELL CREEK,2 MI SW COWDEN,39.23549,-88.90346,STREAM
OQC-01,OPOSSUM CREEK,4 MI E OCONEE,39.29527,-89.02528,STREAM
OR-01,RICHLAND CREEK-NORTH,3.5 MI E COWDEN,39.23589,-88.78684,STREAM
OS-03,ROBINSON CREEK,0.25 MI S AND 3.7 MI E TOWER HILL,39.37668,-88.88112,STREAM
OT-03,WEST OKAW RIVER,3 MI SW LOVINGTON,39.6737,-88.6652,STREAM
OU-01,JONATHON CREEK,RT 121 BR 2.5 MI E OF SULLIVAN,39.60077,-88.54604,STREAM AMBIENT INACTIVE
OW-01,LAKE FORK,RT 36 BR AT ATWOOD,39.79167,-88.4625,STREAM
OW-03,LAKE FORK,5 MI NW ATWOOD,39.87601,-88.51858,STREAM
OZC-01,PLUM CREEK-SOUTH,"BALDWIN RD (2000E) BR, 0.4 MI N OF WOODED OAK LN AND 2.5 MI S OF BALDWIN",38.14656,-89.84317,STREAM AMBIENT INACTIVE
OZD-01,DOZA CREEK,4 MI S NEW ATHENS,38.2548333,-89.86125,STREAM
OZYA-01,COPPER SLOUGH,3 MI SW I57/I72 INT WEST OF CHAMPAIGN,40.0842417,-88.3328056,STREAM
OZYA-02,COPPER SLOUGH,"CR 1400 N,  2.3 MI W OF CHAMPAIGN AND 0.28 MI DNS CHAMPAIGN SW STP",40.084,-88.338,STREAM
OZZJ-01,JORDAN CREEK,5 MI S SHELBYVILLE,39.33079,-88.79004,STREAM
OZZS-01,WHITLEY CREEK,2.5 MI SW ALLENVILLE,39.51163,-88.54935,STREAM
OZZT-01,ASA CREEK,"HAMBLIN RD (1100 E) BR, 0.2 MI S OF CR 1500 N AND 0.8 MI N OF SULLIVAN",39.62009,-88.60475,STREAM AMBIENT INACTIVE
OZZU-01,COON CREEK-NORTH,0.75 MI SW ALLENVILLE,39.5497722,-88.5416944,STREAM
OZZW-01,DRY FORK,2 MI SE GARRETT,39.7690444,-88.4076028,STREAM
OZZX-01,TWOMILE SLOUGH,3 MI W PESOTUM,39.91538,-88.33058,STREAM
P-11,ROCK RIVER,RT 64 BR AT OREGON,42.01448,-89.32641,STREAM
P-14,ROCK RIVER,RT 72 BR AT BYRON,42.12201,-89.25517,STREAM AMBIENT
P-23,ROCK RIVER,ROCKFORD DAM,42.265281,-89.095282,STREAM
P-24,ROCK RIVER,PROPHETSTOWN ST PK AT PROPHETSTOWN,41.6737,-89.92785,STREAM
P-28,ROCK RIVER,12TH AV BR STERLING,41.783337,-89.706254,STREAM
PA-01,MILL CREEK-SOUTH,BELT LINE RD BR MILAN,41.42991,-90.55065,STREAM
PB-02,GREEN RIVER,RT 88 BR 1 MI S OF DEER GROVE,41.59464,-89.68918,STREAM AMBIENT INACTIVE
PB-04,GREEN RIVER,RT 82 BR N OF GENESEO,41.48879,-90.15789,STREAM AMBIENT
PB-05,GREEN RIVER,MERIDAN RD 8MI SE FRANKLIN GR,41.78347,-89.16843,STREAM
PB-06,GREEN RIVER,HARMON RD BR 6 MI S HARMON,41.63762,-89.55497,STREAM
PB-08,GREEN RIVER,2 MI SSW THOMAS,41.48383,-89.82933,STREAM
PB-10,GREEN RIVER,1 MI E AMBOY ON BINGHAMPTON RD,41.71659,-89.30536,STREAM
PB-19,GREEN RIVER,WALTON RD BR 3 MI S WALTON,41.67695,-89.4398,STREAM
PBD-02,MINERAL CREEK,RT 6 BR 2 MI SE GREEN RIVER,41.45463,-90.29559,STREAM
PBG-10,BIG SLOUGH DRAINAGE DITCH,2.7 MI N GENESEO,41.49312,-90.13328,STREAM
PBI-02,SPRING CREEK,2.2 MI NW ATKINSON,41.43684,-90.06785,STREAM
PBJA-03,COAL CREEK,2 MI NNW ANNAWAN AT CLOSED CO RD,41.43303,-89.92014,STREAM
PBJA-05,COAL CREEK,0.6 MI S SHEFFIELD IDOC PROP,41.34147,-89.73178,STREAM
PBL-02,CENTRAL SPECIAL DITCH,1 MI W OF HOOPPOLE AT RD 2570N,41.521667,-89.92222,STREAM
PBLA-01,WILDCAT DITCH,2 MI SE OF HOOPOLE AT RD 2400N,41.49654,-89.90664,STREAM
PBM-02,FAIRFIELD DITCH #1,4 MI ENE OF HOOPPOLE AT RD 2650N,41.53325,-89.84712,STREAM
PBM-11,FAIRFIELD DITCH #1,CULVERT E-W CO RD,41.51136,-89.85711,STREAM
PBN-01,BUREAU COUNTY DITCH,3 MI S OF THOMAS AT RD 150E & 2200N,41.46668,-89.82949,STREAM
PBO-01,FAIRFIELD UNION SPECIAL DITCH,2 MI W OF THOMAS AT RD 2400N,41.4968,-89.81381,STREAM
PBO-02,FAIRFIELD UNION SPECIAL DITCH,4 MI W OF NEW BEDFORD AT CO RD 2500N,41.5111,-89.79192,STREAM
PBO-10,FAIRFIELD UNION SPECIAL DITCH,6 MI SSE YORKTOWN,41.50333,-89.80081,STREAM
PBP-01,WALNUT SPECIAL DITCH,2.2 MI NE NEW BEDFORD,41.52412,-89.67625,STREAM
PBR-01,BAKER CREEK DITCH,7 MI W OF WALNUT ON CO RD 2850N,41.5616,-89.7045,STREAM
PBS-01,WINNEBAGO DITCH,1 MI N DEER GROVE,41.62805,-89.68717,STREAM
PBU-10,WILLOW CREEK,MERIDAN RD 7 MI SSE ASHTON,41.7654,-89.16838,STREAM
PBZA-01,U-TRIB GREEN RIVER,"4 MI NNW OF ATKINSON AT RD 2150N, RM 22.2L",41.46052,-90.03465,STREAM
PE-06,ROCK CREEK,RT 30 BR 0.5 MI NW OF MORRISON,41.8161,-89.98,STREAM
PH-16,ELKHORN CREEK,"PILGRIM RD (2200N) AT ELKHORN BR, 0.5 MI W OF HOOVER RD (2900E) AND 2 MI NW OF PENROSE",41.90276,-89.69629,STREAM AMBIENT INACTIVE
PHB-01,SUGAR CREEK,FULFS RD 3 MI N STERLING,41.84371,-89.6636,STREAM
PHE-01,BUFFALO CREEK,JAMES RD 3.6 MI SE HAZELHURST,41.92814,-89.63338,STREAM
PJ-01,PINE CREEK,5.5 MI E POLO,41.99092,-89.47131,STREAM
PK-01,FRANKLIN CREEK,FRANKLIN CREEK NATURE PRESERVE 3 MI NW FRANKLIN GROVE ON TWIST RD,41.85961,-89.35416,STREAM
PL-03,KYTE RIVER,HONEY CR RD 1 MI E OF DAYSVILLE,41.98673,-89.29478,STREAM AMBIENT INACTIVE
PL-18,KYTE RIVER,FLAGG RD BR 3 MI N FLAGG,41.93724,-89.15646,STREAM
PN-02,LEAF RIVER,1 MI SE LEAF R TOWN LINE ROAD,42.11525,-89.37456,STREAM
PN-03,LEAF RIVER,1.5 MI E ADELINE ON BASS RD,42.14407,-89.46685,STREAM
PP-01,STILLMAN CREEK,HOLCOMB RD 3M S STILMAN VALLEY,42.06331,-89.16626,STREAM
PQ-02,KISHWAUKEE RIVER,"PERRYVILLE RD BR, 1.5 MI S OF PERRYVILLE AND 0.25 MI UPS OF SOUTH BRANCH KISHWAUKEE RIVER",42.20169,-88.97976,STREAM AMBIENT INACTIVE
PQ-07,KISHWAUKEE RIVER,RT 23 BR N OF MARENGO,42.26549,-88.60839,STREAM
PQ-09,KISHWAUKEE RIVER,4 MI W BELVIDERE,42.25377,-88.93001,STREAM
PQ-12,KISHWAUKEE RIVER,"BLACKHAWK RD BR, 2 MI SW OF PERRYVILLE",42.19447,-88.99951,STREAM AMBIENT
PQ-13,KISHWAUKEE RIVER,PLEASANT VALLEY RD,42.24784,-88.50644,STREAM
PQ-14,KISHWAUKEE RIVER,BUSINESS RT 20 BELVIDERE,42.25907,-88.84289,STREAM
PQB-03,KILLBUCK CREEK,BAXTER RD KILBUCK FOREST PARK,42.16528,-89.09945,STREAM
PQB-06,KILLBUCK CREEK,17 MI S ROCKFORD AT MOWERS ROAD,42.021389,-89.00389,STREAM
PQC-02,SOUTH BRANCH KISHWAUKEE RIVER,1.5 MI W SYCAMORE,41.99674,-88.7221,STREAM
PQC-11,SOUTH BRANCH KISHWAUKEE RIVER,MCNEAL RD BR 2 MI N FAIRDALE,42.13772,-88.93327,STREAM
PQC-13,SOUTH BRANCH KISHWAUKEE RIVER,2 MI SW DEKALB AT GURLER RD,41.8925,-88.7861111,STREAM
PQCL-02,EAST BRANCH SOUTH BRANCH KISHWAUKEE RIVER,MOTEL RD BR 2 MI W SYCAMORE,42.00316,-88.71552,STREAM
PQCL-03,EAST BRANCH SOUTH BRANCH KISHWAUKEE RIVER,AIRPORT RD BR 1 MI SE SYCAMORE,41.966264,-88.658033,STREAM
PQCLA-01,UNION DITCH NO 3,COUNTY LINE RD 1.8 MI N OF MAPLE PARK,41.93364,-88.60131,STREAM
PQD-05,BEAVER CREEK,EDSON RD 1 MI SE POPLAR GROVE,42.35541,-88.80408,STREAM
PQD-07,BEAVER CREEK,RT 20 BR 4 MI W BELVIDERE,42.27612,-88.91528,STREAM
PQD-10,BEAVER CREEK,SQUAW PRAIRIE RD 4.1 MI WNW OF BELVIDERE,42.2907,-88.90931,STREAM
PQE-06,PISCASAW CREEK,RT 173 BR W CHEMUNG,42.41564,-88.6714,STREAM
PQF-06,COON CREEK,RT 20 BR 2.5 MI E BELVIDERE,42.24703,-88.78106,STREAM
PQF-09,COON CREEK,4.8 MI SW MARENGO AT GRANGE ROAD,42.2075,-88.68611,STREAM
PQF-10,COON CREEK,1.3 MI S OF GARDEN PRAIRIE,42.2335,-88.724836,STREAM
